lon,lat,eastVel,northVel,eastSig,northSig,corr,other1,tog,name,upVel,upSig,eastAdj,northAdj,upAdj,
258.526,31.193,-0.03,1.067,0.42,0.422,0,2,1,"TXBL_GPS  ",0,1,0,0,0,
258.521,36.675,0.931,0.639,0.395,0.434,0,2,1,"OKGM_GPS  ",0,1,0,0,0,
258.594,36.27,1.453,-0.555,1.779,1.106,0,2,1,"TXGU_GPS  ",0,1,0,0,0,
258.602,35.64,-0.558,2.175,0.599,0.472,0,2,1,"TXBR_GPS  ",0,1,0,0,0,
258.637,35.102,-0.034,1.497,0.908,0.715,0,2,1,"TXCD_GPS  ",0,1,0,0,0,
258.67,48.416,-0.213,0.127,0.34,0.314,0,2,1,"NDMB_GPS  ",0,1,0,0,0,
258.725,52.067,0.512,-1.196,0.269,0.593,0,2,1,"C271_GPS  ",0,1,0,0,0,
258.728,21.003,0.284,2.705,0.757,0.642,0,2,1,"UGTO_GPS  ",0,1,0,0,0,
258.803,30.726,0.51,0.444,1.009,0.894,0,2,1,"TXOZ_GPS  ",0,1,0,0,0,
258.261,34.534,1.101,1.114,0.828,0.625,0,2,1,"TXTU_GPS  ",0,1,0,0,0,
258.192,32.141,-1.727,0.803,0.918,0.845,0,2,1,"TXSO_GPS  ",0,1,0,0,0,
258.157,33.535,0.23,1.347,0.208,0.199,0,2,1,"TXLU_GPS  ",0,1,0,0,0,
258.122,35.154,-0.186,1.689,0.194,0.181,0,2,1,"TXAM_GPS  ",0,1,0,0,0,
258.984,22.144,0.249,3.673,0.816,0.787,0,2,1,"USLP_GPS  ",0,1,0,0,0,
258.989,31.842,3.138,-0.872,1.011,0.986,0,2,1,"TXSC_GPS  ",0,1,0,0,0,
259.023,33.017,-0.123,1.244,0.219,0.228,0,2,1,"JTNT_GPS  ",0,1,0,0,0,
258.036,35.894,0.276,1.574,0.637,0.714,0,2,1,"TXDU_GPS  ",0,1,0,0,0,
258.022,54.726,0.36,-0.604,0.331,0.361,0,2,1,"FLIN_GPS  ",0,1,0,0,0,
259.071,35.534,-0.281,0.459,0.869,0.729,0,2,1,"TXPM_GPS  ",0,1,0,0,0,
259.087,34.951,-0.274,3.024,0.521,0.54,0,2,1,"TXCL_GPS  ",0,1,0,0,0,
259.1,29.364,-0.299,0.961,0.382,0.278,0,2,1,"TXDR_GPS  ",0,1,0,0,0,
257.938,36.338,0.291,1.211,1.06,0.695,0,2,1,"TXSF_GPS  ",0,1,0,0,0,
259.183,46.821,0.66,0.726,0.279,0.294,0,2,1,"BSMK_GPS  ",0,1,0,0,0,
259.235,41.136,-0.016,1.229,0.466,0.409,0,2,1,"NENP_GPS  ",0,1,0,0,0,
257.82,37.775,0.078,1.989,0.2,0.197,0,2,1,"GDAC_GPS  ",0,1,0,0,0,
257.768,31.132,1.316,0.729,1.077,0.84,0,2,1,"TXMC_GPS  ",0,1,0,0,0,
259.347,40.087,0.073,1.524,0.37,0.359,0,2,1,"RWDN_GPS  ",0,1,0,0,0,
257.686,31.873,-0.239,0.616,0.278,0.265,0,2,1,"TXO0_GPS  ",0,1,0,0,0,
257.671,35.688,0.448,1.658,0.506,0.484,0,2,1,"TXCG_GPS  ",0,1,0,0,0,
259.422,40.199,-0.992,1.636,0.992,0.707,0,2,1,"NEMC_GPS  ",0,1,0,0,0,
257.642,31.423,-0.09,1.182,1.016,0.734,0,2,1,"TXCE_GPS  ",0,1,0,0,0,
257.616,52.842,0.495,-0.665,0.251,0.536,0,2,1,"C291_GPS  ",0,1,0,0,0,
259.471,34.724,-0.417,1.591,0.649,0.497,0,2,1,"TXME_GPS  ",0,1,0,0,0,
257.596,51.219,0.467,-0.549,0.833,0.45,0,2,1,"C289_GPS  ",0,1,0,0,0,
257.593,34.846,-1.215,0.733,0.855,0.651,0,2,1,"TXHR_GPS  ",0,1,0,0,0,
257.591,30.153,-0.084,1.59,0.353,0.265,0,2,1,"TXSN_GPS  ",0,1,0,0,0,
257.576,35.244,-0.105,1.226,0.582,1.363,0,2,1,"TXVG_GPS  ",0,1,0,0,0,
259.523,28.708,0.186,1.861,0.869,0.861,0,2,1,"TXEP_GPS  ",0,1,0,0,0,
259.527,31.414,-0.37,1.842,0.252,0.326,0,2,1,"TXSA_GPS  ",0,1,0,0,0,
257.522,-74.43,-4.415,15.177,1.843,1.965,0,4,1,"BAC0_GPS  ",0,1,0,0,0,
259.587,20.591,2.192,2.482,0.708,0.649,0,2,1,"UQRO_GPS  ",0,1,0,0,0,
257.488,34.825,-0.296,1.507,0.25,0.271,0,2,1,"SUM0_GPS  ",0,1,0,0,0,
257.461,36.078,-0.455,1.289,0.755,0.874,0,2,1,"TXDL_GPS  ",0,1,0,0,0,
259.622,35.92,0.864,1.193,1.13,0.972,0,2,1,"TXCI_GPS  ",0,1,0,0,0,
257.456,32.308,0.724,1.055,0.995,0.715,0,2,1,"TXAD_GPS  ",0,1,0,0,0,
259.687,25.716,-0.546,2.129,0.333,0.331,0,2,1,"MTY2_GPS  ",0,1,0,0,0,
259.71,34.012,-0.363,1.186,0.615,0.417,0,2,1,"TXPD_GPS  ",0,1,0,0,0,
259.722,34.46,0.447,1.662,0.301,0.273,0,2,1,"TXCH_GPS  ",0,1,0,0,0,
257.313,38.071,-0.218,1.626,0.296,0.263,0,2,1,"P040_GPS  ",0,1,0,0,0,
259.781,35.226,0.405,2.395,0.62,0.498,0,2,1,"TXSH_GPS  ",0,1,0,0,0,
259.798,34.85,-0.028,-1.233,0.606,0.534,0,2,1,"TXWL_GPS  ",0,1,0,0,0,
257.133,30.894,0.165,0.894,1.019,0.679,0,2,1,"TXFS_GPS  ",0,1,0,0,0,
257.106,31.558,0.743,0.47,0.888,0.678,0,2,1,"TXMH_GPS  ",0,1,0,0,0,
260.032,31.761,0.577,0.541,0.94,0.738,0,2,1,"TXBI_GPS  ",0,1,0,0,0,
257.023,49.679,0.383,0.638,0.299,0.24,0,2,1,"C285_GPS  ",0,1,0,0,0,
260.089,49.886,-0.121,0.096,0.471,0.287,0,2,1,"C269_GPS  ",0,1,0,0,0,
260.095,40.306,0.546,0.722,0.993,0.885,0,2,1,"NEAP_GPS  ",0,1,0,0,0,
260.15,28.535,-0.088,1.727,0.897,0.757,0,2,1,"TXCS_GPS  ",0,1,0,0,0,
260.15,28.942,1.252,0.675,0.896,0.781,0,2,1,"TXLP_GPS  ",0,1,0,0,0,
260.173,29.201,0.011,1.174,0.53,0.665,0,2,1,"TXUV_GPS  ",0,1,0,0,0,
256.891,31.843,0.336,1.316,0.978,0.723,0,2,1,"TXKM_GPS  ",0,1,0,0,0,
260.199,30.479,-0.321,1.753,0.308,0.301,0,2,1,"JCT1_GPS  ",0,1,0,0,0,
260.223,30.5,-0.73,1.464,1.589,0.736,0,2,1,"TXJN_GPS  ",0,1,0,0,0,
256.846,36.448,-0.374,1.766,0.268,0.232,0,2,1,"P039_GPS  ",0,1,0,0,0,
260.239,29.739,0.898,1.342,1.132,0.747,0,2,1,"TXLE_GPS  ",0,1,0,0,0,
260.243,32.503,0.14,1.769,0.32,0.275,0,2,1,"TXAB_GPS  ",0,1,0,0,0,
260.258,30.493,0.356,0.713,1.112,0.853,0,2,1,"LCJU_GPS  ",0,1,0,0,0,
256.778,40.172,-0.106,1.435,0.254,0.254,0,2,1,"P044_GPS  ",0,1,0,0,0,
256.726,46.905,-0.582,1.051,0.573,0.706,0,2,1,"MDR0_GPS  ",0,1,0,0,0,
256.671,42.739,0.241,1.092,0.253,0.239,0,2,1,"WHN9_GPS  ",0,1,0,0,0,
256.593,34.147,-0.644,1.588,0.272,0.235,0,2,1,"P038_GPS  ",0,1,0,0,0,
268.541,49.292,0.203,-0.325,1.097,0.91,0,2,1,"C123_GPS  ",0,1,0,0,0,
248.537,36.909,-1.368,1.353,0.739,0.534,0,2,1,"AZPG_GPS  ",0,1,0,0,0,
248.521,44.83,0.349,1.057,0.381,0.394,0.008,2,1,"N144_GPS  ",0,1,0,0,0,
248.497,36.866,-1.934,2.006,3.3,3.75,0.066,2,1,"L404_GPS  ",0,1,0,0,0,
248.486,44.598,-0.954,-2.521,0.612,0.616,-0.013,2,1,"K092_GPS  ",0,1,0,0,0,
268.595,31.561,0.254,0.799,0.778,0.64,0,2,1,"MSNA_GPS  ",0,1,0,0,0,
248.485,32.984,-1.717,2.737,0.75,0.75,0.019,2,1,"AZCL_GPS  ",0,1,0,0,0,
268.599,39.695,0.965,0.347,0.766,0.714,0,2,1,"MOHL_GPS  ",0,1,0,0,0,
248.474,44.185,-1.193,-0.428,0.357,0.379,0,2,1,"BBID_GPS  ",0,1,0,0,0,
248.472,40.413,0.139,1.649,0.597,0.545,0,2,1,"DCUT_GPS  ",0,1,0,0,0,
248.47,43.482,-1.435,-0.274,0.445,0.429,0,164,1,"P359_GPS  ",0,1,0,0,0,
248.462,40.028,-1.468,1.098,0.82,0.62,0,2,1,"POLE_GPS  ",0,1,0,0,0,
248.462,40.741,-0.184,1.508,0.67,0.53,0,2,1,"KIMB_GPS  ",0,1,0,0,0,
268.623,39.938,0.547,1.167,0.531,0.467,0,2,1,"SIKA_GPS  ",0,1,0,0,0,
268.638,42.878,1.862,1.042,0.731,0.59,0,2,1,"IAEL_GPS  ",0,1,0,0,0,
248.435,41.607,-0.203,1.391,0.393,0.367,0,2,1,"HWUT_GPS  ",0,1,0,0,0,
268.657,37.97,0.656,0.676,0.699,0.579,0,2,1,"MOST_GPS  ",0,1,0,0,0,
248.416,42.654,-2.266,0.905,0.581,0.594,0.047,161,1,"SSPR_GPS  ",0,1,0,0,0,
248.416,42.686,-1.801,1.164,0.355,0.372,0,161,1,"IDSS_GPS  ",0,1,0,0,0,
248.408,44.902,0.531,-0.605,0.561,0.574,0.002,2,1,"WFRA_GPS  ",0,1,0,0,0,
248.38,40.584,-0.556,1.29,0.351,0.346,0,2,1,"ALUT_GPS  ",0,1,0,0,0,
268.709,43.497,0.452,1.025,0.5,0.429,0,2,1,"NALB_GPS  ",0,1,0,0,0,
248.37,45.597,1.109,0.815,0.309,0.312,0,102,1,"NOMT_GPS  ",0,1,0,0,0,
248.366,40.016,-0.568,1.496,0.383,0.355,0,2,1,"MPUT_GPS  ",0,1,0,0,0,
248.365,35.215,-1.005,2.413,0.87,1.03,-0.03,2,1,"FLAG_GPS  ",0,1,0,0,0,
268.719,-79.627,-9.569,11.728,0.456,0.129,0,4,1,"W06A_GPS  ",0,1,0,0,0,
248.351,35.202,-1.56,2.348,0.804,0.811,0,2,1,"FLAG_GPS  ",0,1,0,0,0,
248.349,39.597,-0.361,1.379,0.986,0.974,0,2,1,"P109_GPS  ",0,1,0,0,0,
248.343,35.177,-1.403,1.275,0.657,0.507,0,2,1,"AZFL_GPS  ",0,1,0,0,0,
268.743,42.104,0.749,0.647,0.626,0.594,0,2,1,"IAAN_GPS  ",0,1,0,0,0,
248.334,41.046,-1.163,0.507,0.632,0.611,0,2,1,"MOUT_GPS  ",0,1,0,0,0,
268.749,47.303,1.411,-0.328,1.092,0.936,0,2,1,"SLVB_GPS  ",0,1,0,0,0,
248.321,45.232,0.708,1.91,0.367,0.381,-0.052,102,1,"H146_GPS  ",0,1,0,0,0,
268.775,43.778,0.25,1.665,0.51,0.472,0,2,1,"LCRS_GPS  ",0,1,0,0,0,
268.784,37.455,1.074,0.394,1.324,1.168,0,2,1,"MOB8_GPS  ",0,1,0,0,0,
268.791,40.833,1.029,0.814,0.648,0.677,0,2,1,"IAWB_GPS  ",0,1,0,0,0,
268.792,39.348,0.718,0.582,0.721,0.556,0,2,1,"MOBG_GPS  ",0,1,0,0,0,
248.283,40.752,-0.927,1.606,0.67,0.53,0,2,1,"1S2E_GPS  ",0,1,0,0,0,
248.277,40.772,-0.46,1.284,0.407,0.398,0,2,1,"P088_GPS  ",0,1,0,0,0,
268.809,41.175,0.997,0.649,0.672,0.547,0,2,1,"IAWO_GPS  ",0,1,0,0,0,
248.265,42.827,-1.026,0.091,0.41,0.394,0,161,1,"P683_GPS  ",0,1,0,0,0,
268.817,32.4,0.064,0.569,0.519,0.474,0,2,1,"TALL_GPS  ",0,1,0,0,0,
268.82,30.407,-0.102,1.658,0.434,0.363,0,2,1,"1LSU_GPS  ",0,1,0,0,0,
248.254,39.744,-0.373,2.608,1.01,0.67,0,2,1,"FOOT_GPS  ",0,1,0,0,0,
248.249,40.435,-2.143,0.893,0.427,0.4,0,161,1,"P117_GPS  ",0,1,0,0,0,
268.839,38.815,0.686,0.98,0.74,0.61,0,2,1,"MOWR_GPS  ",0,1,0,0,0,
248.219,41.583,-0.703,1.202,0.446,0.418,0,161,1,"P126_GPS  ",0,1,0,0,0,
248.217,45.693,0.952,1.237,0.374,0.387,0.003,102,1,"F145_GPS  ",0,1,0,0,0,
248.216,43.82,-1.478,-0.406,0.392,0.39,0,164,1,"IDBY_GPS  ",0,1,0,0,0,
248.212,42.541,-1.284,0.938,0.552,0.592,0.118,161,1,"GRCE_GPS  ",0,1,0,0,0,
248.211,45.218,0.741,1.236,0.471,0.402,0,102,1,"P719_GPS  ",0,1,0,0,0,
248.206,34.863,-1.745,1.509,0.65,0.553,0,2,1,"SEDO_GPS  ",0,1,0,0,0,
248.195,43.836,-2.205,0.009,0.387,0.339,-0.044,164,1,"U11D_GPS  ",0,1,0,0,0,
248.192,26.621,-34.735,29.785,1.1,0.8,0,245,1,"CONC_GPS  ",0,1,0,0,0,
248.191,40.781,-0.762,1.687,0.29,0.286,0,2,1,"RBUT_GPS  ",0,1,0,0,0,
268.89,41.643,0.652,0.717,0.717,0.584,0,2,1,"IATI_GPS  ",0,1,0,0,0,
268.893,30.396,0.203,-0.074,0.872,0.995,0,2,1,"SJB1_GPS  ",0,1,0,0,0,
248.171,34.537,-1.171,2.267,3.15,3.45,0.076,2,1,"W002_GPS  ",0,1,0,0,0,
248.17,44.068,-1.161,-0.292,0.468,0.449,0,164,1,"P685_GPS  ",0,1,0,0,0,
248.163,44.719,-0.503,-0.071,0.478,0.474,0,102,1,"P707_GPS  ",0,1,0,0,0,
248.157,42.215,-1.401,1.112,0.412,0.436,0.022,161,1,"BATI_GPS  ",0,1,0,0,0,
248.148,41.082,-0.054,1.484,0.72,0.53,0,2,1,"FRPK_GPS  ",0,1,0,0,0,
248.147,39.807,-1.57,1.994,0.67,0.58,0,161,1,"MONA_GPS  ",0,1,0,0,0,
268.939,36.96,0.53,0.746,0.811,0.718,0,2,1,"MOVB_GPS  ",0,1,0,0,0,
248.119,42.65,-2.518,0.494,0.579,0.632,0.116,161,1,"3926_GPS  ",0,1,0,0,0,
248.115,-74.546,-0.724,21.371,1.471,1.657,0,4,1,"BERP_GPS  ",0,1,0,0,0,
248.108,33.774,-1.867,1.867,0.751,0.687,0,2,1,"AZAH_GPS  ",0,1,0,0,0,
248.103,39.914,-3.237,1.833,0.547,0.536,0,161,1,"GOUT_GPS  ",0,1,0,0,0,
248.101,41.589,-0.645,1.034,0.458,0.406,0,161,1,"P125_GPS  ",0,1,0,0,0,
248.093,40.621,-1.075,1.279,0.422,0.371,0,161,1,"MIDV_GPS  ",0,1,0,0,0,
248.08,43.306,-1.678,-0.346,0.721,0.619,0,164,1,"TMIG_GPS  ",0,1,0,0,0,
248.08,43.657,-1.316,0.327,0.381,0.394,-0.015,164,1,"RGBY_GPS  ",0,1,0,0,0,
248.077,33.492,-2.732,2.877,0.45,0.45,0.028,2,1,"AZSC_GPS  ",0,1,0,0,0,
269.003,38.46,0.706,1.275,0.623,0.325,0,2,1,"SICE_GPS  ",0,1,0,0,0,
248.072,40.261,-2.324,1.386,0.331,0.307,0,161,1,"LMUT_GPS  ",0,1,0,0,0,
248.071,41.253,-0.696,1.271,0.186,0.172,0,161,1,"EOUT_GPS  ",0,1,0,0,0,
248.07,40.435,-1.232,1.027,0.67,0.53,0,161,1,"MRPH_GPS  ",0,1,0,0,0,
269.017,30.1,0.106,0.576,0.813,0.804,0,2,1,"AWES_GPS  ",0,1,0,0,0,
248.055,39.589,-1.755,1.598,0.387,0.37,0,161,1,"P108_GPS  ",0,1,0,0,0,
248.052,42.391,-1.248,0.453,0.631,0.651,0.057,161,1,"DOWN_GPS  ",0,1,0,0,0,
248.051,40.162,-2.874,2.48,0.67,0.53,0,161,1,"0H64_GPS  ",0,1,0,0,0,
248.05,39.952,-2.98,2.629,0.72,0.53,0,161,1,"ELBE_GPS  ",0,1,0,0,0,
248.049,40.72,-1.612,1.859,0.58,0.43,0,161,1,"BLMB_GPS  ",0,1,0,0,0,
248.048,33.447,-2.134,2.431,0.383,0.394,0,2,1,"SA31_GPS  ",0,1,0,0,0,
248.048,40.786,-1.176,1.391,0.436,0.296,0,161,1,"ZLC1_GPS  ",0,1,0,0,0,
248.043,41.558,-0.638,0.573,0.495,0.464,0,161,1,"P124_GPS  ",0,1,0,0,0,
248.042,44.598,-0.596,0.069,0.374,0.387,-0.01,164,1,"E138_GPS  ",0,1,0,0,0,
248.02,24.51,-39.742,32.25,1.4,1,0,245,1,"WMAR_GPS  ",0,1,0,0,0,
248.019,34.728,-1.261,2.353,2.55,2.7,0.086,2,1,"R018_GPS  ",0,1,0,0,0,
248.011,37.52,-0.997,1.138,0.88,0.681,0,2,1,"KODA_GPS  ",0,1,0,0,0,
248.006,46.589,1.041,0.95,0.73,0.767,0,102,1,"MTDT_GPS  ",0,1,0,0,0,
269.08,32.331,-1.471,-0.061,0.273,0.252,0,2,1,"VIC9_GPS  ",0,1,0,0,0,
247.997,41.757,-1.465,0.092,0.72,0.53,0,161,1,"CURV_GPS  ",0,1,0,0,0,
247.986,40.434,-2.075,1.097,0.423,0.412,0,161,1,"P116_GPS  ",0,1,0,0,0,
269.096,30.314,0.272,0.65,0.801,0.619,0,2,1,"GVMS_GPS  ",0,1,0,0,0,
247.977,40.727,-2.273,1.754,0.82,0.62,0,161,1,"MUHA_GPS  ",0,1,0,0,0,
247.973,40.588,-2.014,2.794,0.67,0.58,0,161,1,"FLOR_GPS  ",0,1,0,0,0,
247.971,55.945,1.368,-0.342,0.345,0.502,0,2,1,"C041_GPS  ",0,1,0,0,0,
247.958,43.482,-1.788,-0.308,0.553,0.463,0,164,1,"IDBB_GPS  ",0,1,0,0,0,
247.953,39.662,-2.124,2.774,0.77,0.58,0,161,1,"CAPS_GPS  ",0,1,0,0,0,
269.13,15.348,2.201,0.232,0.787,0.775,0.061,91,1,"USP__GPS  ",0,1,0,0,0,
247.948,43.519,-1.698,-0.432,0.38,0.427,0,164,1,"IDIF_GPS  ",0,1,0,0,0,
247.936,41.539,-2.133,1.245,0.82,0.58,0,161,1,"BAIR_GPS  ",0,1,0,0,0,
247.936,43.986,-1.292,-0.275,0.701,0.662,0,164,1,"GBIG_GPS  ",0,1,0,0,0,
247.932,43.481,-1.625,0.407,0.332,0.339,-0.019,164,1,"I107_GPS  ",0,1,0,0,0,
269.174,15.011,3.979,2.496,0.797,0.778,0.003,91,1,"JOY__GPS  ",0,1,0,0,0,
247.896,39.762,-2.766,1.768,0.91,0.67,0,161,1,"FERN_GPS  ",0,1,0,0,0,
247.893,45.239,1.227,1.659,0.43,0.453,0.049,102,1,"RBYU_GPS  ",0,1,0,0,0,
247.89,41.111,-0.905,1.508,0.67,0.53,0,161,1,"ABRA_GPS  ",0,1,0,0,0,
269.196,14.638,9.438,2.997,0.791,0.755,0.035,241,1,"CML__GPS  ",0,1,0,0,0,
247.883,50.665,2.137,1.202,0.1,1.1,0,2,1,"1655_GPS  ",0,1,0,0,0,
247.879,40.653,-1.853,1.351,0.3,0.291,0,161,1,"COON_GPS  ",0,1,0,0,0,
247.873,39.306,-2.256,1.704,0.387,0.344,0,161,1,"SPIC_GPS  ",0,1,0,0,0,
269.212,39.179,0.955,1.027,1.499,1.453,0,2,1,"MOEB_GPS  ",0,1,0,0,0,
247.867,40.708,-1.226,1.78,0.67,0.53,0,161,1,"KERR_GPS  ",0,1,0,0,0,
247.853,34.046,-0.859,2.938,3.3,3.45,0.089,2,1,"RCK0_GPS  ",0,1,0,0,0,
247.852,41.795,-2.335,1.2,0.67,0.48,0,161,1,"SIDE_GPS  ",0,1,0,0,0,
247.849,39.602,-3.277,1.964,0.82,0.69,-0.07,161,1,"G101_GPS  ",0,1,0,0,0,
247.848,34.784,-2.211,1.898,0.712,0.798,0,2,1,"P004_GPS  ",0,1,0,0,0,
269.255,39.067,0.327,0.525,1.502,1.05,0,2,1,"FWI0_GPS  ",0,1,0,0,0,
269.256,37.705,1.115,0.633,0.938,0.94,0,2,1,"MOBW_GPS  ",0,1,0,0,0,
269.267,33.747,-0.138,1.596,0.398,0.401,0,2,1,"MSCL_GPS  ",0,1,0,0,0,
269.276,29.592,-0.417,0.311,0.263,0.375,0,2,1,"HOUM_GPS  ",0,1,0,0,0,
247.796,47.834,1.437,1.496,0.557,0.592,0.036,2,1,"M729_GPS  ",0,1,0,0,0,
247.787,42.036,-1.173,0.997,0.43,0.447,-0.047,161,1,"DRUF_GPS  ",0,1,0,0,0,
247.778,42.696,-1.518,0.427,0.418,0.436,-0.048,164,1,"I762_GPS  ",0,1,0,0,0,
247.777,38.48,-1.471,1.389,0.482,0.431,0,161,1,"P009_GPS  ",0,1,0,0,0,
269.304,38.754,0.915,0.41,1.009,0.867,0,2,1,"MOOF_GPS  ",0,1,0,0,0,
247.775,42.344,-3.116,-0.312,0.604,0.66,0.119,161,1,"P99X_GPS  ",0,1,0,0,0,
247.773,32.839,-1.33,2.566,2.55,2.7,0.028,2,1,"LINN_GPS  ",0,1,0,0,0,
269.307,38.739,0.021,1.188,0.59,0.482,0,2,1,"SIDC_GPS  ",0,1,0,0,0,
247.772,33.451,-2.189,2.318,0.408,0.323,0,2,1,"SRP1_GPS  ",0,1,0,0,0,
269.31,34.114,0.227,1.352,0.455,0.418,0,2,1,"MSB9_GPS  ",0,1,0,0,0,
269.31,34.115,-0.433,1.371,0.43,0.368,0,2,1,"MSB0_GPS  ",0,1,0,0,0,
247.77,41.016,-1.35,1.2,0.3,0.3,0,161,1,"NAIU_GPS  ",0,1,0,0,0,
247.77,43.839,-1.073,-0.641,0.507,0.515,0.008,164,1,"TERR_GPS  ",0,1,0,0,0,
247.765,41.042,-1.332,1.984,0.67,0.53,0,161,1,"BENN_GPS  ",0,1,0,0,0,
247.764,44.068,-1.006,0.118,0.381,0.4,-0.033,164,1,"I132_GPS  ",0,1,0,0,0,
247.758,39.14,-2.374,1.35,0.84,0.59,0.01,161,1,"G200_GPS  ",0,1,0,0,0,
269.326,42.456,0.683,0.442,0.712,0.817,0,2,1,"IADU_GPS  ",0,1,0,0,0,
247.753,41.592,-1.626,0.504,0.451,0.402,0,161,1,"LTUT_GPS  ",0,1,0,0,0,
269.33,40.458,1.303,0.616,1.728,1.291,0,2,1,"ILM0_GPS  ",0,1,0,0,0,
247.747,40.635,-1.233,1.175,0.72,0.58,0,161,1,"ERDA_GPS  ",0,1,0,0,0,
247.746,40.702,-1.118,2.095,0.72,0.58,0,161,1,"LAKE_GPS  ",0,1,0,0,0,
247.739,45.061,0.038,1.804,0.577,0.589,0.005,102,1,"SWET_GPS  ",0,1,0,0,0,
247.738,39.459,-2.431,1.44,0.398,0.386,0,161,1,"P106_GPS  ",0,1,0,0,0,
269.351,38.806,0.169,1.114,0.506,0.373,0,2,1,"MOS9_GPS  ",0,1,0,0,0,
269.355,42.074,0.756,0.196,0.721,0.588,0,2,1,"IAMQ_GPS  ",0,1,0,0,0,
269.356,38.665,0.182,1.09,0.367,0.369,0,2,1,"SRDX_GPS  ",0,1,0,0,0,
247.718,40.649,-1.881,1.345,0.387,0.367,0,161,1,"P086_GPS  ",0,1,0,0,0,
269.37,15.458,4.862,6.774,1.23,1.2,0.043,2,1,"PAM0_Fra  ",0,1,0,0,0,
269.37,41.61,1.084,1.064,0.649,0.672,0,2,1,"IADA_GPS  ",0,1,0,0,0,
247.692,33.834,-1.469,3.154,4.95,5.55,0.052,2,1,"LAKE_GPS  ",0,1,0,0,0,
247.682,34.588,-1.914,2.818,0.824,0.647,0,2,1,"AZPV_GPS  ",0,1,0,0,0,
247.674,44.338,-1.215,-0.519,0.609,0.608,0,164,1,"PZCG_GPS  ",0,1,0,0,0,
247.668,41.635,-1.416,0.76,0.355,0.339,0,161,1,"P122_GPS  ",0,1,0,0,0,
247.662,43.54,-1.274,-0.485,0.771,0.771,0.003,164,1,"BUSH_GPS  ",0,1,0,0,0,
269.427,34.217,0.104,0.938,0.717,0.77,0,2,1,"EDC0_GPS  ",0,1,0,0,0,
247.643,36.17,-1.709,1.778,5.55,6.6,0.048,2,1,"SIGN_GPS  ",0,1,0,0,0,
247.642,42.156,-1.097,-0.694,0.583,0.636,0.108,161,1,"A811_GPS  ",0,1,0,0,0,
247.642,44.906,-0.343,1.167,0.587,0.596,0.001,102,1,"PRIC_GPS  ",0,1,0,0,0,
269.438,50.704,-0.338,-0.571,1.155,1.558,0,2,1,"C122_GPS  ",0,1,0,0,0,
247.639,40.078,-2.617,1.356,0.396,0.389,0,161,1,"P016_GPS  ",0,1,0,0,0,
247.628,42.87,-2.401,0.344,0.662,0.603,0,164,1,"PTIG_GPS  ",0,1,0,0,0,
269.46,19.845,-0.094,1.606,0.5,0.5,0.029,2,1,"CAMP_GPS  ",0,1,0,0,0,
269.469,43.23,0.962,0.429,0.554,0.514,0,2,1,"BLRW_GPS  ",0,1,0,0,0,
269.473,19.853,0.012,1.208,0.525,0.49,0,2,1,"ICA0_GPS  ",0,1,0,0,0,
269.478,14.59,11.853,5.552,0.413,0.402,0.118,241,1,"GUAT_Fra  ",0,1,0,0,0,
269.48,14.59,11.853,5.552,0.413,0.402,0,241,1,"GUAT_GPS  ",0,1,0,0,0,
269.481,36.059,-0.064,1.152,0.296,0.255,0,2,1,"ARPG_GPS  ",0,1,0,0,0,
247.599,42.826,-1.602,0.73,0.453,0.458,-0.036,164,1,"I585_GPS  ",0,1,0,0,0,
247.591,40.337,-3.308,1.224,0.72,0.62,0,161,1,"V175_GPS  ",0,1,0,0,0,
247.59,53.565,1.977,-0.145,0.196,0.343,0,2,1,"C301_GPS  ",0,1,0,0,0,
247.577,42.855,-2.321,0.221,0.412,0.418,-0.024,164,1,"POCR_GPS  ",0,1,0,0,0,
247.572,40.474,-2.568,1.224,0.435,0.438,0,161,1,"P115_GPS  ",0,1,0,0,0,
247.568,42.866,-2.151,0.413,0.335,0.269,0,164,1,"IDPO_GPS  ",0,1,0,0,0,
269.515,37.845,0.203,1.366,0.208,0.244,0,2,1,"MACC_GPS  ",0,1,0,0,0,
269.523,39.665,0.074,1.257,0.644,0.701,0,2,1,"WNCI_GPS  ",0,1,0,0,0,
269.532,30.513,-0.135,1.267,0.205,0.214,0,2,1,"HAMM_GPS  ",0,1,0,0,0,
247.547,34.522,-0.747,2.908,2.7,3,0.043,2,1,"SENA_GPS  ",0,1,0,0,0,
247.545,35.342,-1.809,2.518,0.222,0.206,0,2,1,"FERN_GPS  ",0,1,0,0,0,
358.549,50.931,18.528,-6.679,0.272,0.29,0,1,1,"OSHQ_GPS  ",0,1,0,0,0,
358.551,38.041,21.199,-6.329,0.637,0.532,0,1,1,"MULA_GPS  ",0,1,0,0,0,
358.559,42.378,20.774,-7.457,0.849,0.577,0,1,1,"CARC_GPS  ",0,1,0,0,0,
358.562,51.149,18.036,-6.981,0.538,0.425,0,1,1,"CHIO_GPS  ",0,1,0,0,0,
358.567,55.009,17.864,-6.783,0.334,0.231,0,1,1,"NSL0_GPS  ",0,1,0,0,0,
358.571,46.693,19.579,-7.653,1.423,0.837,0,1,1,"RYON_GPS  ",0,1,0,0,0,
358.575,37.658,21.761,-5.303,0.2,0.2,0.001,1,1,"GANU_GPS  ",0,1,0,0,0,
158.469,-75.796,17.748,8.429,0.451,0.541,0,4,1,"BRIP_GPS  ",0,1,0,0,0,
358.62,53.483,17.635,-7.426,0.314,0.273,0,1,1,"HOOB_GPS  ",0,1,0,0,0,
358.632,49.676,19.023,-6.918,0.389,0.332,0,1,1,"VARO_GPS  ",0,1,0,0,0,
358.669,52.359,18.474,-7.532,0.333,0.311,0,1,1,"CLAW_GPS  ",0,1,0,0,0,
358.673,38.471,21.151,-8.158,1.08,1.05,0.001,1,1,"JUMI_GPS  ",0,1,0,0,0,
358.674,38.502,22.036,-5.898,0.762,0.612,0,1,1,"JUMI_GPS  ",0,1,0,0,0,
358.685,51.404,21.044,-6.267,0.856,0.995,0,1,1,"NEWB_GPS  ",0,1,0,0,0,
358.711,51.824,19.055,-6.812,0.304,0.254,0,1,1,"OXFR_GPS  ",0,1,0,0,0,
358.713,42.58,20.934,-7.239,0.634,0.62,0,1,1,"SANG_GPS  ",0,1,0,0,0,
358.716,51.454,18.384,-6.458,0.18,0.171,0,1,1,"HRM1_GPS  ",0,1,0,0,0,
358.725,59.854,15.462,-6.431,0.469,0.392,0,1,1,"SUM3_GPS  ",0,1,0,0,0,
358.738,42.935,20.353,-6.946,1.22,1.131,0,1,1,"ARIB_GPS  ",0,1,0,0,0,
358.75,53.006,16.743,-8.347,0.394,0.41,0,1,1,"WATN_GPS  ",0,1,0,0,0,
358.751,44.646,20.302,-6.824,0.423,0.616,0,1,1,"FERR_GPS  ",0,1,0,0,0,
358.766,48.827,19.042,-7.651,0.963,0.772,0,1,1,"VLPL_GPS  ",0,1,0,0,0,
358.772,44.201,20.704,-6.73,0.404,0.32,0,1,1,"MIMZ_GPS  ",0,1,0,0,0,
358.781,46.159,19.961,-6.626,0.281,0.172,0,1,1,"LROC_GPS  ",0,1,0,0,0,
358.787,50.65,18.381,-6.957,0.357,0.523,0,1,1,"SANO_GPS  ",0,1,0,0,0,
358.791,39.569,21.087,-6.867,0.331,0.283,0,1,1,"UTIE_GPS  ",0,1,0,0,0,
358.808,52.941,18.29,-7.163,0.165,0.174,0,1,1,"IESG_GPS  ",0,1,0,0,0,
358.816,60.138,15.488,-6.347,0.214,0.224,0,1,1,"LER0_GPS  ",0,1,0,0,0,
358.819,37.623,21.151,-5.322,0.2,0.2,0.002,1,1,"MAJA_GPS  ",0,1,0,0,0,
358.86,60.154,15.405,-5.907,0.899,0.846,0,1,1,"LWTG_GPS  ",0,1,0,0,0,
358.866,44.764,20.994,-6.955,0.735,0.665,0,1,1,"ARES_GPS  ",0,1,0,0,0,
158.213,53.28,-9.873,11.82,2.21,2.18,0.001,190,1,"KORC_GPS  ",0,1,0,0,0,
158.21,6.96,-70.13,45.913,0.471,0.432,0,68,1,"POHN_GPS  ",0,1,0,0,0,
358.876,40.351,21.288,-6.92,0.442,0.368,0,1,1,"TERU_GPS  ",0,1,0,0,0,
358.877,37.99,21.017,-7.457,0.736,0.757,0,1,1,"MURC_GPS  ",0,1,0,0,0,
358.889,50.802,18.661,-6.618,0.237,0.272,0,1,1,"PMTG_GPS  ",0,1,0,0,0,
358.892,45.744,20.407,-6.687,0.618,0.433,0,1,1,"ARVE_GPS  ",0,1,0,0,0,
358.9,54.162,17.807,-6.815,0.34,0.349,0,1,1,"YEAS_GPS  ",0,1,0,0,0,
358.922,52.879,18.06,-6.906,0.198,0.201,0,1,1,"KEY0_GPS  ",0,1,0,0,0,
358.924,44.978,20.5,-6.586,0.653,0.427,0,1,1,"LCAU_GPS  ",0,1,0,0,0,
358.941,39.061,21.215,-7.693,0.579,0.39,0,1,1,"AYOR_GPS  ",0,1,0,0,0,
358.944,43.711,20.444,-6.986,0.571,0.467,0,1,1,"ADAX_GPS  ",0,1,0,0,0,
358.945,49.117,19.398,-6.592,0.701,0.546,0,1,1,"STLO_GPS  ",0,1,0,0,0,
358.971,47.704,19.829,-6.829,0.403,0.422,0,1,1,"COMB_GPS  ",0,1,0,0,0,
358.976,45.639,20.085,-6.782,0.663,0.47,0,1,1,"ROYA_GPS  ",0,1,0,0,0,
358.986,43.334,20.17,-7.652,0.93,1.422,0,1,1,"AICI_GPS  ",0,1,0,0,0,
358.988,37.587,20.946,-5.734,0.3,0.3,0.015,1,1,"CART_GPS  ",0,1,0,0,0,
359.005,37.606,19.837,-5.948,0.86,0.85,0.001,1,1,"CRTG_GPS  ",0,1,0,0,0,
359.021,37.607,20.879,-6.221,0.717,0.54,0,1,1,"CRT0_GPS  ",0,1,0,0,0,
359.045,42.81,20.526,-6.917,0.647,0.813,0,1,1,"RONC_GPS  ",0,1,0,0,0,
359.051,46.104,19.704,-6.573,1.021,0.746,0,1,1,"AUNI_GPS  ",0,1,0,0,0,
359.088,52.252,17.935,-6.731,0.402,0.342,0,1,1,"NOR5_GPS  ",0,1,0,0,0,
359.118,41.633,20.814,-6.944,0.351,0.282,0,1,1,"ZARA_GPS  ",0,1,0,0,0,
359.137,54.563,19.289,-6.724,0.319,0.312,0,1,1,"LOFT_GPS  ",0,1,0,0,0,
359.138,9.554,21.885,-4.685,0.613,0.374,0,3,1,"TAMA_GPS  ",0,1,0,0,0,
359.139,37.731,22.072,-5.661,0.506,0.425,0,1,1,"ALCA_GPS  ",0,1,0,0,0,
359.193,48.413,19.796,-6.589,0.699,0.493,0,1,1,"GORN_GPS  ",0,1,0,0,0,
359.206,47.116,19.742,-7.034,0.668,0.508,0,1,1,"TREM_GPS  ",0,1,0,0,0,
359.221,37.835,21.694,-6.277,0.643,0.469,0,1,1,"SAL7_GPS  ",0,1,0,0,0,
359.227,51.28,18.497,-6.449,0.286,0.295,0,1,1,"FARN_GPS  ",0,1,0,0,0,
359.228,52.024,19.157,-6.858,0.526,0.401,0,1,1,"MIL5_GPS  ",0,1,0,0,0,
359.273,42.567,20.099,-7.231,0.884,1.281,0,1,1,"JACA_GPS  ",0,1,0,0,0,
359.277,48.073,19.147,-6.964,1.53,1.779,0,1,1,"LAVL_GPS  ",0,1,0,0,0,
359.302,37.631,21.502,-6.388,0.641,0.544,0,1,1,"CABO_GPS  ",0,1,0,0,0,
359.319,37.975,21.392,-6.124,0.369,0.313,0,1,1,"TORR_GPS  ",0,1,0,0,0,
359.326,43.231,20.323,-6.741,0.728,0.524,0,1,1,"ORIN_GPS  ",0,1,0,0,0,
359.375,52.307,18.39,-7.093,0.344,0.338,0,1,1,"WEL2_GPS  ",0,1,0,0,0,
359.376,49.177,19.248,-6.3,1.148,1.238,0,1,1,"TIL3_GPS  ",0,1,0,0,0,
359.421,46.174,19.577,-7.461,1.143,1.303,0,1,1,"USSO_GPS  ",0,1,0,0,0,
359.427,45.224,20.761,-6.3,0.437,0.364,0,1,1,"ETAU_GPS  ",0,1,0,0,0,
359.434,44.869,20.445,-7.028,0.26,0.213,0,1,1,"CUBX_GPS  ",0,1,0,0,0,
359.441,51.677,18.525,-6.988,0.294,0.257,0,1,1,"AMER_GPS  ",0,1,0,0,0,
359.446,48.137,19.348,-7.88,1.101,1.099,0,1,1,"MOSU_GPS  ",0,1,0,0,0,
359.452,47.472,19.542,-6.81,0.336,0.284,0,1,1,"ANGE_GPS  ",0,1,0,0,0,
359.471,50.95,18.414,-7.021,0.351,0.442,0,1,1,"HARD_GPS  ",0,1,0,0,0,
359.472,44.681,20.64,-6.612,0.759,0.49,0,1,1,"LBRD_GPS  ",0,1,0,0,0,
359.48,53.25,17.917,-7.124,0.289,0.245,0,1,1,"LIN1_GPS  ",0,1,0,0,0,
359.495,53.736,17.829,-7.028,0.389,0.315,0,1,1,"SWAN_GPS  ",0,1,0,0,0,
359.515,43.883,20.346,-6.973,0.481,0.336,0,1,1,"MTDM_GPS  ",0,1,0,0,0,
359.519,38.339,21.28,-6.392,0.231,0.208,0,1,1,"ALAC_GPS  ",0,1,0,0,0,
359.526,38.698,21.025,-6.149,0.36,0.336,0,1,1,"ALCO_GPS  ",0,1,0,0,0,
359.526,46.84,19.749,-6.679,0.287,0.234,0,1,1,"BRES_GPS  ",0,1,0,0,0,
359.543,49.183,18.919,-6.665,0.422,0.292,0,1,1,"CAEN_GPS  ",0,1,0,0,0,
157.536,53.325,-0.236,14.228,2.4,2.5,-0.011,190,1,"MALI_GPS  ",0,1,0,0,0,
359.552,42.119,20.348,-7.225,0.84,0.686,0,1,1,"EPSH_GPS  ",0,1,0,0,0,
359.579,52.105,18.377,-6.718,0.999,0.499,0,1,1,"CARD_GPS  ",0,1,0,0,0,
359.583,51.4,18.472,-6.429,0.461,0.359,0,1,1,"SUNB_GPS  ",0,1,0,0,0,
359.592,46.133,19.963,-6.721,0.187,0.161,0,1,1,"CHIZ_GPS  ",0,1,0,0,0,
157.474,53.333,-8.088,8.101,3.22,3.23,-0.004,190,1,"MALK_GPS  ",0,1,0,0,0,
359.62,54.253,17.822,-7.316,0.359,0.416,0,1,1,"SCAR_GPS  ",0,1,0,0,0,
359.634,49.217,19.1,-6.081,0.942,0.767,0,1,1,"EPRN_GPS  ",0,1,0,0,0,
359.656,39.436,20.842,-6.516,0.388,0.307,0,1,1,"VCIA_GPS  ",0,1,0,0,0,
359.656,51.425,17.857,-6.832,0.373,0.332,0,1,1,"TED0_GPS  ",0,1,0,0,0,
359.662,39.481,21.32,-6.867,0.336,0.242,0,1,1,"VALE_GPS  ",0,1,0,0,0,
359.67,47.845,19.733,-6.995,0.897,1.032,0,1,1,"SBLS_GPS  ",0,1,0,0,0,
157.407,-8.721,-25.953,59.862,1.274,1.071,0,68,1,"RAVA_GPS  ",0,1,0,0,0,
359.674,43.322,20.544,-6.454,0.404,0.371,0,1,1,"UNME_GPS  ",0,1,0,0,0,
359.687,35.858,18.804,-6.332,0.92,1.11,0.016,1,1,"ARZE_GPS  ",0,1,0,0,0,
359.69,35.86,19.946,-4.617,0.81,0.83,0,1,1,"ARZE_GPS  ",0,1,0,0,0,
359.737,52.584,18.013,-6.875,0.261,0.245,0,1,1,"PET3_GPS  ",0,1,0,0,0,
359.752,46.292,19.956,-7.141,0.273,0.209,0,1,1,"THOR_GPS  ",0,1,0,0,0,
359.778,46.411,20.748,-6.103,1.225,1.184,0,1,1,"SMLE_GPS  ",0,1,0,0,0,
359.788,48.641,19.483,-7.067,0.796,0.627,0,1,1,"RANE_GPS  ",0,1,0,0,0,
157.27,-8.327,-41.478,52.027,0.967,0.538,0,68,1,"MUND_GPS  ",0,1,0,0,0,
359.822,51.902,18.31,-7.211,0.37,0.311,0,1,1,"STEE_GPS  ",0,1,0,0,0,
359.85,48.569,18.151,-7.215,0.97,0.864,0,1,1,"CRRG_GPS  ",0,1,0,0,0,
359.851,46.672,19.749,-6.733,0.54,0.664,0,1,1,"LAPE_GPS  ",0,1,0,0,0,
359.867,51.526,18.461,-7.545,0.732,0.705,0,1,1,"UCL0_GPS  ",0,1,0,0,0,
359.88,51.489,18.169,-6.622,1.385,0.876,0,1,1,"LON1_GPS  ",0,1,0,0,0,
359.882,45.041,20.157,-6.897,0.938,0.626,0,1,1,"COUT_GPS  ",0,1,0,0,0,
359.889,52.186,18.079,-7.024,0.365,0.314,0,1,1,"NEOT_GPS  ",0,1,0,0,0,
359.898,40.618,21.365,-7.585,0.486,0.418,0,1,1,"MOR3_GPS  ",0,1,0,0,0,
359.917,39.905,21.509,-7.021,0.274,0.233,0,1,1,"BORR_GPS  ",0,1,0,0,0,
359.922,54.117,17.652,-6.806,0.659,0.733,0,1,1,"FLA1_GPS  ",0,1,0,0,0,
359.963,51.575,18.368,-7.035,0.725,0.955,0,1,1,"WFST_GPS  ",0,1,0,0,0,
359.994,16.252,21.645,-4.191,0.633,0.438,0,3,1,"GAO1_GPS  ",0,1,0,0,0,
156.866,-8.1,-40.535,47.727,0.951,0.799,0,68,1,"GIZO_GPS  ",0,1,0,0,0,
156.866,-8.101,-43.089,48.86,0.192,0.138,0,68,1,"NUSA_GPS  ",0,1,0,0,0,
156.81,51.466,-12.918,6.769,2.21,2.2,0.004,190,1,"PAUZ_GPS  ",0,1,0,0,0,
156.738,57.091,0.851,3.549,2.26,2.23,0.002,190,1,"UHAZ_GPS  ",0,1,0,0,0,
156.68,-7.931,-44.987,51.212,1.064,0.564,0,68,1,"VELA_GPS  ",0,1,0,0,0,
156.575,52.928,-9.424,8.615,2.53,2.58,-0.206,190,1,"UBR2_GPS  ",0,1,0,0,0,
156.518,-8.269,-20.076,62.068,0.786,0.584,0,68,1,"SIMB_GPS  ",0,1,0,0,0,
156.25,-83.307,16.149,8.299,0.845,0.86,0,4,1,"IGGY_GPS  ",0,1,0,0,0,
156.244,52.661,-9.725,8.094,2.3,2.25,-0.016,190,1,"UBR1_GPS  ",0,1,0,0,0,
155.962,54.304,-3.359,4.38,2.25,2.22,0,190,1,"SOBL_GPS  ",0,1,0,0,0,
155.894,-79.147,16.829,8.07,0.421,0.418,0,4,1,"BURI_GPS  ",0,1,0,0,0,
155.77,62.518,1.144,2.572,2.27,2.21,-0.003,2,1,"OMS1_GPS  ",0,1,0,0,0,
155.463,-4.783,-61.159,39.612,4.6,2.4,0,68,1,"CART_GPS  ",0,1,0,0,0,
154.675,-3.335,-65.226,39.457,4.6,2.4,0,68,1,"NUGU_GPS  ",0,1,0,0,0,
153.979,24.29,-75.919,43.686,0.4,0.413,0,68,1,"MCI0_GPS  ",0,1,0,0,0,
153.575,-28.272,27.951,72.89,1.307,1.65,0,19,1,"SALT_GPS  ",0,1,0,0,0,
153.562,-28.869,26.594,71.991,1.462,1.588,0,19,1,"BLNA_GPS  ",0,1,0,0,0,
153.422,-27.538,25.504,69.81,1.613,1.45,0,19,1,"CRL0_GPS  ",0,1,0,0,0,
153.4,-28.349,27.814,71.253,1.569,1.522,0,19,1,"TWED_GPS  ",0,1,0,0,0,
153.381,-28.077,27.002,73.202,0.796,0.692,0,19,1,"ROB1_GPS  ",0,1,0,0,0,
153.374,-27.941,26.373,72.799,1.982,1.275,0,19,1,"ARUN_GPS  ",0,1,0,0,0,
153.267,-27.526,27.224,72.972,0.78,0.674,0,19,1,"CLEV_GPS  ",0,1,0,0,0,
153.203,-27.72,28.431,74.883,0.626,0.747,0,19,1,"BEE2_GPS  ",0,1,0,0,0,
153.194,-28.125,28.163,71.941,1.924,1.529,0,19,1,"BCMT_GPS  ",0,1,0,0,0,
153.118,-30.295,27.4,74.361,1.927,1.717,0,19,1,"CHCC_GPS  ",0,1,0,0,0,
153.069,-26.685,28.453,70.801,1.49,2.067,0,19,1,"BDRM_GPS  ",0,1,0,0,0,
153.047,-27.441,28.491,73.424,1.395,1.262,0,19,1,"CRKB_GPS  ",0,1,0,0,0,
153.035,-27.485,27.584,73.525,0.423,0.395,0,19,1,"WOOL_GPS  ",0,1,0,0,0,
152.995,-27.987,26.883,73.092,0.553,0.531,0,19,1,"BDST_GPS  ",0,1,0,0,0,
152.952,-27.084,27.736,72.469,0.863,0.961,0,19,1,"CAB2_GPS  ",0,1,0,0,0,
152.944,-9.225,22.482,102.217,1.193,0.784,0,123,1,"GUA1_GPS  ",0,1,0,0,0,
152.943,-9.225,22.482,102.217,1.193,0.784,0,123,1,"GUA1_GPS  ",0,1,0,0,0,
152.833,-10.688,29.861,77.379,2.7,1.5,0,19,1,"MISI_GPS  ",0,1,0,0,0,
152.827,-25.283,30.701,73.16,1.411,1.747,0,19,1,"HBAY_GPS  ",0,1,0,0,0,
152.759,-27.615,27.119,73.679,0.796,0.618,0,19,1,"IPS2_GPS  ",0,1,0,0,0,
152.732,-81.346,16.289,7.351,0.459,0.483,0,4,1,"LWN0_GPS  ",0,1,0,0,0,
152.66,-26.189,30.368,73.189,1.733,1.759,0,19,1,"GYM0_GPS  ",0,1,0,0,0,
152.422,62.925,0.89,1.077,1.19,1.17,0.001,2,1,"SEY2_GPS  ",0,1,0,0,0,
152.392,61.13,2.754,-0.742,2.3,2.23,-0.001,190,1,"TAL1_GPS  ",0,1,0,0,0,
152.331,-27.544,27.098,73.487,0.682,0.697,0,19,1,"GATT_GPS  ",0,1,0,0,0,
152.321,-24.908,29.339,73.681,0.547,0.455,0,19,1,"BNDY_GPS  ",0,1,0,0,0,
152.162,-4.192,22.012,-78.664,4.6,2.4,0,202,1,"RABL_GPS  ",0,1,0,0,0,
152.03,-28.213,26.859,72.559,1.408,1.293,0,19,1,"WARW_GPS  ",0,1,0,0,0,
151.928,-27.534,27.86,73.388,0.823,0.705,0,19,1,"TOOW_GPS  ",0,1,0,0,0,
151.897,-9.271,32.724,96.525,1.16,1.08,0,123,1,"YANA_GPS  ",0,1,0,0,0,
151.887,7.447,-71.126,42.755,1.337,0.859,0,68,1,"TRUK_GPS  ",0,1,0,0,0,
151.868,-10.225,34.688,80.239,0.85,0.48,0,140,1,"STRA_GPS  ",0,1,0,0,0,
151.7,-27.27,28.146,71.935,1.461,1.264,0,19,1,"ACL1_GPS  ",0,1,0,0,0,
151.602,-32.89,32.897,69.194,1.322,1.813,0,19,1,"SEAH_GPS  ",0,1,0,0,0,
151.597,-26.158,30.734,74.358,1.843,1.423,0,19,1,"PRO1_GPS  ",0,1,0,0,0,
151.554,-32.846,24.302,73.562,1.717,1.861,0,19,1,"DARA_GPS  ",0,1,0,0,0,
151.505,-5.645,17.345,-30.205,4.1,2.2,0,202,1,"JACQ_GPS  ",0,1,0,0,0,
151.491,-32.799,27.089,74.688,1.538,1.46,0,19,1,"KURR_GPS  ",0,1,0,0,0,
151.43,-32.759,24.942,73.947,1.917,1.454,0,19,1,"SAWG_GPS  ",0,1,0,0,0,
151.38,-32.71,25.876,73.241,1.478,1.435,0,19,1,"MTMM_GPS  ",0,1,0,0,0,
151.339,-27.81,28.001,72.893,1.194,1.395,0,19,1,"MIL3_GPS  ",0,1,0,0,0,
151.334,-32.657,24.95,74.356,1.58,1.609,0,19,1,"BRA2_GPS  ",0,1,0,0,0,
151.274,-9.923,33.042,80.263,1.16,0.68,0,122,1,"KWAN_GPS  ",0,1,0,0,0,
151.264,-27.171,28.186,74.047,1.007,0.996,0,19,1,"DALB_GPS  ",0,1,0,0,0,
151.254,-23.841,29.975,72.49,1.635,1.35,0,19,1,"GLAD_GPS  ",0,1,0,0,0,
151.204,-10.2,34.249,79.878,0.96,1.14,0,122,1,"DIGA_GPS  ",0,1,0,0,0,
151.185,-9.94,35.223,79.534,1.27,1.09,0,122,1,"BWAR_GPS  ",0,1,0,0,0,
151.185,-33.924,26.111,73.599,1.526,1.301,0,19,1,"CRK1_GPS  ",0,1,0,0,0,
151.184,-8.853,28.844,95.064,0.68,0.61,0,123,1,"VAKU_GPS  ",0,1,0,0,0,
151.15,-33.781,25.309,73.76,0.293,0.254,0,19,1,"SYDN_GPS  ",0,1,0,0,0,
151.125,-8.535,23.587,93.646,0.921,0.65,0,123,1,"LOUS_GPS  ",0,1,0,0,0,
151.036,-10.11,34.067,78.172,1.8,0.69,0,122,1,"KURA_GPS  ",0,1,0,0,0,
151.015,-9.927,32.951,79.377,0.99,1.19,0,122,1,"DARB_GPS  ",0,1,0,0,0,
150.953,-9.452,33.162,92.424,1.72,1.64,0,123,1,"UAMA_GPS  ",0,1,0,0,0,
150.939,-32.252,22.515,74.263,2.098,1.416,0,19,1,"MUSW_GPS  ",0,1,0,0,0,
150.914,-34.476,24.817,73.383,0.639,0.567,0,19,1,"PTKL_GPS  ",0,1,0,0,0,
150.874,-10.226,33.939,79.556,1.29,0.95,0,140,1,"HEHE_GPS  ",0,1,0,0,0,
150.865,-9.21,31.535,92.474,1.81,1.81,0,123,1,"GUMA_GPS  ",0,1,0,0,0,
150.833,-9.466,34.294,90.137,1.11,1.38,0,122,1,"BASM_GPS  ",0,1,0,0,0,
150.82,-34.063,28.427,74.49,2.237,1.643,0,19,1,"CBT0_GPS  ",0,1,0,0,0,
150.812,-9.739,35.796,81.883,0.84,0.8,0,122,1,"ESAA_GPS  ",0,1,0,0,0,
150.81,59.578,1.696,2.312,0.546,0.66,0,190,1,"MAGJ_GPS  ",0,1,0,0,0,
150.807,-2.582,-63.587,50.217,1.7,1.1,0,201,1,"KAVI_GPS  ",0,1,0,0,0,
150.796,-9.663,35.117,86.099,1.56,0.9,0,122,1,"SALM_GPS  ",0,1,0,0,0,
150.77,59.576,0.511,1.268,0.699,0.98,0,190,1,"MAG0_GPS  ",0,1,0,0,0,
150.728,-10.302,33.52,76.604,0.8,1.47,0,140,1,"LELE_GPS  ",0,1,0,0,0,
150.712,-9.311,31.541,91.971,0.85,0.85,0,123,1,"KWAT_GPS  ",0,1,0,0,0,
150.662,-10.613,32.787,77.87,0.45,0.69,0,140,1,"SMRI_GPS  ",0,1,0,0,0,
150.554,-10.213,34.359,78.896,1.52,1.03,0,140,1,"KEIA_GPS  ",0,1,0,0,0,
150.532,-9.355,32.975,90.051,1.72,2.1,0,122,1,"WAPO_GPS  ",0,1,0,0,0,
150.437,-9.61,34.498,84.271,1.72,1.16,0,122,1,"MAPA_GPS  ",0,1,0,0,0,
150.43,-9.414,34.537,85.319,2.01,0.87,0,122,1,"KALO_GPS  ",0,1,0,0,0,
150.427,-10.408,33.959,78.328,0.93,0.83,0,140,1,"DAIO_GPS  ",0,1,0,0,0,
150.338,-10.31,31.953,77.812,1.039,0.805,0,140,1,"ALT2_GPS  ",0,1,0,0,0,
150.324,-9.31,33.676,86.676,0.58,0.48,0,123,1,"VIVI_GPS  ",0,1,0,0,0,
150.299,-8.522,25.332,91.45,1.48,1.24,0,123,1,"KAWA_GPS  ",0,1,0,0,0,
150.292,-9.496,34.717,84.588,1.16,1.2,0,122,1,"KILI_GPS  ",0,1,0,0,0,
150.268,-10.684,33.095,77.963,0.95,0.65,0,140,1,"SIBA_GPS  ",0,1,0,0,0,
150.243,-9.211,32.816,87.388,0.83,0.46,0,123,1,"WATL_GPS  ",0,1,0,0,0,
150.187,-9.432,31.987,86.625,0.9,1.02,0,122,1,"MORA_GPS  ",0,1,0,0,0,
150.139,-9.245,31.341,88.064,0.85,0.7,0,123,1,"WAIB_GPS  ",0,1,0,0,0,
150.122,-36.035,25.073,73.003,1.086,0.904,0,19,1,"TURO_GPS  ",0,1,0,0,0,
150.102,-10.095,34.509,79.746,0.7,0.92,0,140,1,"JONE_GPS  ",0,1,0,0,0,
150.041,-33.325,23.699,71.856,3.291,3.769,0,19,1,"LITH_GPS  ",0,1,0,0,0,
149.965,-16.287,33.648,75.172,1.842,1.417,0,19,1,"WILI_GPS  ",0,1,0,0,0,
149.936,-9.757,35.1,83.299,0.27,1.58,0,122,1,"MENA_GPS  ",0,1,0,0,0,
149.915,-37.568,23.717,73.201,0.876,0.716,0,19,1,"GABO_GPS  ",0,1,0,0,0,
149.867,-10.399,33.767,77.054,0.49,0.57,0,140,1,"NUBE_GPS  ",0,1,0,0,0,
149.834,-9.972,35.505,82.946,0.57,0.85,0,122,1,"RABA_GPS  ",0,1,0,0,0,
149.795,-9.621,36.163,83.297,0.54,0.68,0,122,1,"PEMM_GPS  ",0,1,0,0,0,
149.794,-9.78,36.206,83.457,0.55,1.06,0,122,1,"GIWA_GPS  ",0,1,0,0,0,
149.708,-9.841,36.688,78.788,0.83,2.28,0,122,1,"SIRI_GPS  ",0,1,0,0,0,
149.474,-9.608,34.151,81.975,0.83,0.58,0,122,1,"BAYA_GPS  ",0,1,0,0,0,
149.435,-4.688,27.793,-3.971,8.1,4.2,0,202,1,"WITU_GPS  ",0,1,0,0,0,
149.323,-9.08,30.069,84.14,1.64,1.13,0,123,1,"TUFI_GPS  ",0,1,0,0,0,
149.318,-9.079,30.579,84.749,0.84,0.65,0,123,1,"TUF2_GPS  ",0,1,0,0,0,
149.249,-35.341,26.257,73.007,1.936,2.011,0,19,1,"QUEA_GPS  ",0,1,0,0,0,
149.157,-9.338,32.309,83.702,0.9,0.68,0,123,1,"WANI_GPS  ",0,1,0,0,0,
149.103,-33.303,27.586,74.953,2.461,2.558,0,19,1,"ORG0_GPS  ",0,1,0,0,0,
149.088,-35.056,26.02,74.054,1.743,1.649,0,19,1,"MURM_GPS  ",0,1,0,0,0,
149.051,-35.324,26.393,75.068,1.787,1.469,0,19,1,"CANB_GPS  ",0,1,0,0,0,
149.012,-30.027,30.321,74.665,0.94,1.288,0,19,1,"BUR4_GPS  ",0,1,0,0,0,
149.01,-35.316,26.332,74.111,0.282,0.224,0,19,1,"STR1_GPS  ",0,1,0,0,0,
148.98,-35.399,26.074,75.089,0.443,0.43,0,19,1,"TIDB_GPS  ",0,1,0,0,0,
148.826,-32.914,28.46,74.334,1.015,1.187,0,19,1,"CMNK_GPS  ",0,1,0,0,0,
148.608,-31.037,23.278,63.544,2.296,1.968,0,19,1,"COO2_GPS  ",0,1,0,0,0,
148.603,-32.247,28.525,72.032,1.501,1.229,0,19,1,"DUB1_GPS  ",0,1,0,0,0,
247.539,34.609,-1.613,1.482,0.755,0.508,0,2,1,"AZPS_GPS  ",0,1,0,0,0,
247.53,43.223,-1.781,0.484,0.381,0.381,-0.001,164,1,"ABDI_GPS  ",0,1,0,0,0,
269.553,15.99,1.906,2.723,0.794,0.758,0.046,2,1,"RUB__GPS  ",0,1,0,0,0,
247.501,36.988,-1.057,1.882,0.321,0.314,0,2,1,"FRED_GPS  ",0,1,0,0,0,
269.582,38.574,0.363,1.23,0.476,0.394,0,2,1,"KAR0_GPS  ",0,1,0,0,0,
269.588,32.846,0.465,0.925,0.48,0.426,0,2,1,"MSYZ_GPS  ",0,1,0,0,0,
247.482,45.968,0.681,0.478,0.469,0.474,-0.003,102,1,"BUTT_GPS  ",0,1,0,0,0,
247.476,45.043,0.542,0.921,0.446,0.469,0,102,1,"P706_GPS  ",0,1,0,0,0,
247.472,40.634,-2.351,1.171,0.392,0.367,0,161,1,"P114_GPS  ",0,1,0,0,0,
269.611,15.464,4.772,2.211,0.775,0.742,0.087,2,1,"COB__GPS  ",0,1,0,0,0,
269.611,38.195,0.546,1.113,0.734,0.619,0,2,1,"MOFE_GPS  ",0,1,0,0,0,
269.618,29.965,0.013,0.736,0.377,0.396,0,2,1,"DSTR_GPS  ",0,1,0,0,0,
269.618,14.075,12.412,6.758,0.825,0.768,0.026,78,1,"CHL__GPS  ",0,1,0,0,0,
269.62,14.551,14.7,4.357,0.775,0.742,0.098,241,1,"PIN__GPS  ",0,1,0,0,0,
247.456,41.794,-2.681,0.311,0.77,0.53,0,161,1,"HOWE_GPS  ",0,1,0,0,0,
247.454,39.367,-1.581,2.311,1.03,0.74,0.04,161,1,"F280_GPS  ",0,1,0,0,0,
269.648,38.601,0.317,1.683,0.872,0.792,0,2,1,"SIHQ_GPS  ",0,1,0,0,0,
269.651,29.9,0.384,0.879,1.388,0.56,0,2,1,"LWES_GPS  ",0,1,0,0,0,
269.659,47.749,0.171,-0.181,0.258,0.272,0,2,1,"GDMA_GPS  ",0,1,0,0,0,
247.406,38.602,-3.083,1.403,0.53,0.48,0.01,161,1,"G300_GPS  ",0,1,0,0,0,
247.399,44.897,0.336,1.663,0.557,0.557,0.005,102,1,"SGCK_GPS  ",0,1,0,0,0,
247.399,49.592,1.674,0.707,0.374,0.107,0,2,1,"C306_GPS  ",0,1,0,0,0,
247.385,45.232,-0.027,1.184,0.354,0.346,0.006,102,1,"DILL_GPS  ",0,1,0,0,0,
269.696,-0.743,49.946,12.23,0.531,0.538,0,194,1,"GLP0_GPS  ",0,1,0,0,0,
247.383,45.383,0.724,0.983,0.41,0.392,0,102,1,"P045_GPS  ",0,1,0,0,0,
247.38,33.37,-2.37,1.987,0.526,0.515,0,2,1,"AZBK_GPS  ",0,1,0,0,0,
247.377,41.757,-1.838,0.927,0.364,0.356,0,161,1,"P057_GPS  ",0,1,0,0,0,
247.377,43.667,-1.143,0.503,0.439,0.425,0,164,1,"ARNG_GPS  ",0,1,0,0,0,
247.365,43.445,-3.06,0.535,0.583,0.574,0.022,164,1,"SPLT_GPS  ",0,1,0,0,0,
247.365,43.83,-1.253,0.395,0.321,0.306,0,164,1,"CRBG_GPS  ",0,1,0,0,0,
247.364,44.4,-0.298,0.378,0.487,0.479,0,102,1,"P681_GPS  ",0,1,0,0,0,
269.719,15.075,7.297,3.31,0.803,0.762,0.038,91,1,"SAL__GPS  ",0,1,0,0,0,
269.74,-0.46,50.371,13.055,1,0.92,0.001,194,1,"BALT_GPS  ",0,1,0,0,0,
269.741,-0.461,50.65,13.349,0.5,0.5,0,194,1,"BALT_GPS  ",0,1,0,0,0,
269.751,14.816,13.163,3.329,0.794,0.758,0.054,241,1,"SAN__GPS  ",0,1,0,0,0,
269.752,42.914,-0.017,0.548,0.402,0.306,0,2,1,"JFWS_GPS  ",0,1,0,0,0,
269.753,38.764,1.064,0.188,1.527,0.756,0,2,1,"MOB4_GPS  ",0,1,0,0,0,
247.324,38.034,-2.048,0.813,1.092,0.659,0,161,1,"PARO_GPS  ",0,1,0,0,0,
269.774,42.012,0.474,1.483,0.242,0.287,0,2,1,"RIS0_GPS  ",0,1,0,0,0,
269.775,42.012,0.524,0.979,0.217,0.362,0,2,1,"RIS9_GPS  ",0,1,0,0,0,
247.302,41.803,-2.121,0.859,0.351,0.345,0,161,1,"P121_GPS  ",0,1,0,0,0,
247.302,43.326,-1.558,0.649,0.394,0.394,-0.008,164,1,"N056_GPS  ",0,1,0,0,0,
247.288,44.725,-0.054,1.48,0.596,0.604,0.011,102,1,"G318_GPS  ",0,1,0,0,0,
269.793,38.591,0.819,0.895,0.42,0.509,0,2,1,"S011_GPS  ",0,1,0,0,0,
269.794,35.466,-1.496,1.439,0.349,0.34,0,2,1,"MEM2_GPS  ",0,1,0,0,0,
247.283,39.186,-2.348,1.571,0.397,0.38,0,161,1,"P104_GPS  ",0,1,0,0,0,
247.281,42.212,-2.064,0.771,0.403,0.395,0,161,1,"P675_GPS  ",0,1,0,0,0,
269.801,42.083,0.721,0.519,0.629,0.598,0,2,1,"IASA_GPS  ",0,1,0,0,0,
247.271,44.486,-0.645,0.534,0.438,0.442,0,102,1,"P455_GPS  ",0,1,0,0,0,
269.815,38.891,0.263,1.203,0.427,0.418,0,2,1,"SIAI_GPS  ",0,1,0,0,0,
269.819,32.327,0.451,0.722,0.668,0.571,0,2,1,"MSJK_GPS  ",0,1,0,0,0,
247.255,33.958,-1.784,2.525,0.973,0.767,0,2,1,"AZWK_GPS  ",0,1,0,0,0,
269.825,36.37,0.656,1.398,0.962,0.765,0,2,1,"PIGT_GPS  ",0,1,0,0,0,
269.834,46.47,0.64,-0.196,0.61,0.478,0,2,1,"MIIW_GPS  ",0,1,0,0,0,
247.243,43.96,-0.574,1.014,0.43,0.436,-0.005,102,1,"BIRC_GPS  ",0,1,0,0,0,
269.838,51.48,-0.038,-0.573,0.691,0.696,0,2,1,"PICL_GPS  ",0,1,0,0,0,
247.24,32.305,-1.878,3.027,3.45,3.75,0.03,2,1,"DUST_GPS  ",0,1,0,0,0,
269.864,37.937,1.361,0.448,0.747,0.603,0,2,1,"MOSG_GPS  ",0,1,0,0,0,
269.865,44.637,2.426,-2.399,1.105,1.184,0,2,1,"MFLD_GPS  ",0,1,0,0,0,
247.212,46.184,0.471,0.876,0.394,0.412,-0.007,102,1,"WSSB_GPS  ",0,1,0,0,0,
269.87,38.287,-0.239,1.958,0.944,1.037,0,2,1,"TWMW_GPS  ",0,1,0,0,0,
269.872,42.978,0.653,0.222,0.737,0.707,0,2,1,"DOLE_GPS  ",0,1,0,0,0,
269.88,29.934,-0.049,0.515,0.594,0.444,0,2,1,"NOLA_GPS  ",0,1,0,0,0,
247.198,31.949,-2.553,2.398,0.77,0.761,0,2,1,"P001_GPS  ",0,1,0,0,0,
247.195,43.449,-1.468,0.529,0.4,0.394,0,164,1,"P678_GPS  ",0,1,0,0,0,
247.19,34.198,-1.074,3.091,3,3.3,0.074,2,1,"ZIGR_GPS  ",0,1,0,0,0,
269.904,30.476,-0.13,1.334,0.291,0.289,0,2,1,"COVG_GPS  ",0,1,0,0,0,
247.175,44.553,-0.263,1.148,0.464,0.49,0.035,102,1,"CABI_GPS  ",0,1,0,0,0,
247.172,43.597,-1.172,-0.066,0.698,0.78,0,164,1,"NPRG_GPS  ",0,1,0,0,0,
247.163,39.317,-1.928,2.27,0.93,0.66,0.01,161,1,"F270_GPS  ",0,1,0,0,0,
247.155,39.426,-2.314,1.441,0.24,0.236,0,161,1,"SMEL_GPS  ",0,1,0,0,0,
269.927,36.221,0.691,0.594,0.713,0.618,0,2,1,"MOKE_GPS  ",0,1,0,0,0,
247.14,40.681,-2.58,1.364,0.292,0.277,0,161,1,"CEDA_GPS  ",0,1,0,0,0,
247.134,33.753,-1.31,3.157,3,3.3,0.098,2,1,"VALY_GPS  ",0,1,0,0,0,
269.962,43.276,0.946,0.616,0.673,0.835,0,2,1,"PLIN_GPS  ",0,1,0,0,0,
269.988,37.519,1.106,0.739,0.736,0.64,0,2,1,"MOPA_GPS  ",0,1,0,0,0,
247.08,43.508,-1.558,0.745,0.381,0.381,0,164,1,"COBB_GPS  ",0,1,0,0,0,
247.073,44.074,-0.62,0.415,0.438,0.423,0,102,1,"EMIG_GPS  ",0,1,0,0,0,
247.067,43.723,-1.215,0.055,0.833,0.95,0,164,1,"LLRG_GPS  ",0,1,0,0,0,
270.015,38.513,0.571,0.327,0.671,0.661,0,2,1,"SCCB_GPS  ",0,1,0,0,0,
247.064,42.709,-1.66,0.726,0.424,0.436,-0.04,164,1,"RM55_GPS  ",0,1,0,0,0,
270.02,38.605,0.205,1.713,0.484,0.385,0,2,1,"WIFH_GPS  ",0,1,0,0,0,
270.021,36.807,2.746,-1.407,1.58,1.211,0,2,1,"MODX_GPS  ",0,1,0,0,0,
247.059,44.33,-0.435,0.953,0.502,0.481,0,102,1,"ICIG_GPS  ",0,1,0,0,0,
247.054,42.078,-2.454,1.357,0.412,0.424,-0.032,161,1,"NGRI_GPS  ",0,1,0,0,0,
270.027,36.88,0.098,1.105,0.251,0.246,0,2,1,"BLMM_GPS  ",0,1,0,0,0,
247.05,43.595,-1.464,0.597,0.4,0.4,-0.001,164,1,"AECU_GPS  ",0,1,0,0,0,
247.044,43.456,1.269,-0.814,0.849,0.849,0.001,164,1,"S058_GPS  ",0,1,0,0,0,
270.042,38.813,0.132,0.008,0.686,0.62,0,2,1,"MACO_GPS  ",0,1,0,0,0,
270.045,35.067,-0.032,1.094,0.392,0.423,0,2,1,"ZME1_GPS  ",0,1,0,0,0,
270.051,38.732,0.276,0.355,0.838,0.495,0,2,1,"KAR9_GPS  ",0,1,0,0,0,
247.019,44.236,-0.491,1.149,0.458,0.469,0.002,102,1,"A038_GPS  ",0,1,0,0,0,
246.988,41.817,-2.527,0.938,0.397,0.374,0,161,1,"P111_GPS  ",0,1,0,0,0,
246.97,44.603,0.238,1.232,0.718,0.718,-0.001,102,1,"MSLK_GPS  ",0,1,0,0,0,
270.116,43.709,0.884,0.122,0.758,0.919,0,2,1,"LYST_GPS  ",0,1,0,0,0,
246.958,39.345,-2.591,1.222,0.478,0.449,0,161,1,"P103_GPS  ",0,1,0,0,0,
246.956,33.078,-1.817,2.954,3,3.15,0.075,2,1,"WOLF_GPS  ",0,1,0,0,0,
270.13,16.92,-0.285,2.42,0.539,0.442,0,2,1,"ELEN_Koy  ",0,1,0,0,0,
270.132,16.916,-0.285,2.42,0.539,0.442,0,2,1,"ELEN_GPS  ",0,1,0,0,0,
246.946,40.494,-2.779,1.25,0.472,0.453,0,161,1,"P084_GPS  ",0,1,0,0,0,
246.944,43.665,-1.24,0.774,0.436,0.436,-0.005,164,1,"GRAF_GPS  ",0,1,0,0,0,
270.142,36.089,0.466,1.215,0.27,0.206,0,2,1,"STLE_GPS  ",0,1,0,0,0,
270.167,13.575,7.495,8.437,0.9,0.7,0,78,1,"ACAJ_GPS  ",0,1,0,0,0,
246.903,43.927,-1.045,0.353,0.58,0.432,0,102,1,"HWFG_GPS  ",0,1,0,0,0,
246.9,43.713,-1.578,0.833,0.43,0.408,0,102,1,"HPIG_GPS  ",0,1,0,0,0,
270.182,15.605,4.076,2.196,0.803,0.762,0.028,2,1,"CAH__GPS  ",0,1,0,0,0,
270.192,13.909,7.222,7.527,0.9,0.6,0,78,1,"AHUA_GPS  ",0,1,0,0,0,
246.878,34.39,-1.93,1.419,0.951,0.917,0,2,1,"MALP_GPS  ",0,1,0,0,0,
246.873,33.521,-1.415,2.512,3.45,3.75,0.056,2,1,"PLEA_GPS  ",0,1,0,0,0,
246.859,48.479,1.531,1.181,0.627,0.66,0.03,2,1,"R424_GPS  ",0,1,0,0,0,
246.854,34.517,-1.402,3.184,2.85,3.15,0.032,2,1,"PIKE_GPS  ",0,1,0,0,0,
246.852,43.592,-1.705,0.831,0.495,0.5,0.002,164,1,"CRAI_GPS  ",0,1,0,0,0,
246.845,54.036,1.386,1.202,0.4,0.6,0,2,1,"X004_GPS  ",0,1,0,0,0,
270.241,38.611,0.297,0.47,0.506,0.471,0,2,1,"STL8_GPS  ",0,1,0,0,0,
246.826,53.571,1.436,-0.24,0.019,0.79,0,2,1,"C305_GPS  ",0,1,0,0,0,
246.821,43.998,-0.835,1.112,0.442,0.447,0.011,102,1,"C054_GPS  ",0,1,0,0,0,
246.807,43.558,-2.865,0.233,0.53,0.564,0.014,164,1,"5223_GPS  ",0,1,0,0,0,
246.798,43.564,-1.458,0.884,0.354,0.367,0.022,164,1,"0A37_GPS  ",0,1,0,0,0,
270.293,38.118,-0.717,1.807,1.414,0.925,0,2,1,"OASC_GPS  ",0,1,0,0,0,
246.782,32.858,-1.779,2.921,2.1,2.25,0.052,2,1,"SENT_GPS  ",0,1,0,0,0,
270.298,36.12,0.325,0.993,0.239,0.206,0,2,1,"MCTY_GPS  ",0,1,0,0,0,
270.3,36.413,0.12,1.16,0.213,0.172,0,2,1,"PTGV_GPS  ",0,1,0,0,0,
246.78,48.421,1.601,0.731,0.77,0.311,0,104,1,"P047_GPS  ",0,1,0,0,0,
246.778,43.579,-1.686,0.835,0.424,0.424,0.006,164,1,"0Z36_GPS  ",0,1,0,0,0,
270.311,30.531,-0.342,1.57,0.758,0.768,0,2,1,"MSPC_GPS  ",0,1,0,0,0,
270.312,38.748,0.06,2.238,0.437,0.583,0,2,1,"TKCH_GPS  ",0,1,0,0,0,
246.759,43.244,-1.677,0.892,0.317,0.307,0,164,1,"GTRG_GPS  ",0,1,0,0,0,
246.759,44.402,0.413,1.801,0.457,0.445,0,102,1,"P358_GPS  ",0,1,0,0,0,
246.755,52.692,1.061,0.134,0.34,0.107,0,2,1,"C304_GPS  ",0,1,0,0,0,
270.329,15.084,8.62,3.111,0.794,0.758,0.039,91,1,"MIN__GPS  ",0,1,0,0,0,
246.749,44.504,0.141,1.207,0.412,0.412,0.031,102,1,"GILM_GPS  ",0,1,0,0,0,
270.337,20.932,-0.08,1.009,0.495,0.467,0,2,1,"MMD1_GPS  ",0,1,0,0,0,
270.34,35.299,0.326,0.948,0.431,0.418,0,2,1,"TN45_GPS  ",0,1,0,0,0,
246.736,43.496,-2.351,0.709,0.781,0.784,0.002,164,1,"B118_GPS  ",0,1,0,0,0,
270.348,14.779,16.375,6.404,0.791,0.755,0.053,241,1,"CHI__GPS  ",0,1,0,0,0,
270.35,37.412,0.812,0.301,0.659,0.603,0,2,1,"MOJK_GPS  ",0,1,0,0,0,
270.356,35.541,0.422,1.112,0.297,0.297,0,2,1,"CVMS_GPS  ",0,1,0,0,0,
246.722,40.671,-2.681,1.23,0.467,0.452,0,161,1,"P113_GPS  ",0,1,0,0,0,
270.372,44.946,0.665,-0.557,0.583,0.659,0,2,1,"WAA0_GPS  ",0,1,0,0,0,
246.706,41.857,-2.654,1.028,0.448,0.465,0,161,1,"P100_GPS  ",0,1,0,0,0,
270.374,45.313,0.072,0.048,1.258,1.363,0,2,1,"IRMA_GPS  ",0,1,0,0,0,
270.38,20.98,-0.111,1.594,0.391,0.378,0,2,1,"MERI_GPS  ",0,1,0,0,0,
270.385,15.03,9.075,2.42,0.809,0.771,0.026,91,1,"HON__GPS  ",0,1,0,0,0,
270.386,30.375,-0.194,1.023,0.364,0.19,0,2,1,"MSS0_GPS  ",0,1,0,0,0,
246.694,43.621,-1.384,0.484,0.669,0.697,0.09,164,1,"A117_GPS  ",0,1,0,0,0,
246.694,44.04,-0.882,1.046,0.507,0.55,0,102,1,"P679_GPS  ",0,1,0,0,0,
270.39,30.356,-0.177,0.786,0.26,0.26,0.033,2,1,"NDBC_GPS  ",0,1,0,0,0,
270.39,39.779,-0.11,0.951,0.61,0.406,0,2,1,"ILSA_GPS  ",0,1,0,0,0,
270.399,13.868,12.482,8.557,0.558,0.565,0,241,1,"SNJE_GPS  ",0,1,0,0,0,
270.407,42.619,1.146,0.298,0.831,0.643,0,2,1,"MOOE_GPS  ",0,1,0,0,0,
246.673,44.637,0.278,1.152,0.367,0.374,-0.035,102,1,"LEAD_GPS  ",0,1,0,0,0,
246.668,47.03,1.275,0.909,0.331,0.345,0,104,1,"P046_GPS  ",0,1,0,0,0,
246.665,41.565,-1.885,0.603,0.52,0.529,0.003,161,1,"X95X_GPS  ",0,1,0,0,0,
246.655,43.619,-1.485,1.344,0.48,0.485,0.002,164,1,"CIND_GPS  ",0,1,0,0,0,
270.435,42.276,0.927,1.52,0.462,0.576,0,2,1,"KA23_GPS  ",0,1,0,0,0,
246.644,48.317,2.163,0.014,0.579,0.596,-0.009,104,1,"MARI_GPS  ",0,1,0,0,0,
270.458,30.845,-0.352,1.669,0.546,0.684,0,2,1,"MSPO_GPS  ",0,1,0,0,0,
270.464,44.545,0.54,0.464,0.599,0.59,0,2,1,"STPT_GPS  ",0,1,0,0,0,
246.615,39.024,-3.689,1.787,0.95,0.67,0.08,161,1,"F220_GPS  ",0,1,0,0,0,
270.468,34.364,0.841,0.956,0.666,0.649,0,2,1,"MSOX_GPS  ",0,1,0,0,0,
246.603,43.93,-2.739,2.917,0.787,0.806,0.017,102,1,"0T7N_GPS  ",0,1,0,0,0,
270.481,35.78,0.656,0.724,0.741,0.621,0,2,1,"TN49_GPS  ",0,1,0,0,0,
246.594,44.316,-0.418,0.97,0.387,0.382,0,102,1,"BCYI_GPS  ",0,1,0,0,0,
246.593,32.99,-1.897,3.188,3.75,4.05,0.12,2,1,"HYDR_GPS  ",0,1,0,0,0,
246.593,43.803,-1.597,1.277,0.464,0.48,0.017,102,1,"DARI_GPS  ",0,1,0,0,0,
246.587,38.646,-1.871,1.299,1.229,0.992,0,161,1,"WAHW_GPS  ",0,1,0,0,0,
246.587,44.251,0.397,1.719,0.51,0.552,0.061,102,1,"L52X_GPS  ",0,1,0,0,0,
270.499,14.981,12.622,6.556,0.857,0.806,0.012,241,1,"ZAC__GPS  ",0,1,0,0,0,
270.5,14.116,19.63,6.806,0.831,0.803,0.01,241,1,"TEXW_GPS  ",0,1,0,0,0,
270.528,36.376,0.419,0.942,0.385,0.305,0,2,1,"LCHS_GPS  ",0,1,0,0,0,
270.53,41.821,0.225,0.868,0.389,0.363,0,2,1,"TM12_GPS  ",0,1,0,0,0,
270.531,14.228,15.64,6.784,0.671,0.548,0,241,1,"GUAJ_GPS  ",0,1,0,0,0,
270.536,43.567,1.267,-0.675,0.616,0.521,0,2,1,"POGE_GPS  ",0,1,0,0,0,
148.52,-23.478,30.783,73.605,1.898,1.108,0,19,1,"ENSH_GPS  ",0,1,0,0,0,
148.265,-32.999,27.159,73.006,0.579,0.591,0,19,1,"PARK_GPS  ",0,1,0,0,0,
148.17,-33.141,28.218,73.383,1.233,1.023,0,19,1,"PAR2_GPS  ",0,1,0,0,0,
148.168,62.779,1.751,0.676,1.25,1.25,0,190,1,"SUS1_GPS  ",0,1,0,0,0,
147.931,-42.546,23.011,74.593,0.632,0.645,0,19,1,"SPBY_GPS  ",0,1,0,0,0,
147.855,-6.615,2.38,19.614,6,2.1,0.029,202,1,"FINS_GPS  ",0,1,0,0,0,
147.656,-37.759,25.708,73.46,0.606,0.632,0,19,1,"BDLE_GPS  ",0,1,0,0,0,
147.59,-7.742,28.08,82.494,2.9,1.8,0,123,1,"MORO_GPS  ",0,1,0,0,0,
147.513,-6.445,12.855,39.237,1.6,1.2,0.01,202,1,"PIND_GPS  ",0,1,0,0,0,
147.439,-42.805,24.171,74.609,0.452,0.461,0,19,1,"HOB2_GPS  ",0,1,0,0,0,
147.431,61.883,3.065,-2.107,1.33,1.33,-0.001,190,1,"KUL1_GPS  ",0,1,0,0,0,
147.425,-2.061,-61.124,44.14,1.455,1.192,0,201,1,"SA42_GPS  ",0,1,0,0,0,
147.371,-35.11,27.339,73.138,1.334,1.212,0,19,1,"WWCC_GPS  ",0,1,0,0,0,
147.366,-2.043,-63.391,43.083,0.416,0.381,0,201,1,"PNGM_GPS  ",0,1,0,0,0,
147.356,-6.729,26.525,50.601,1.5,1.3,0.011,202,1,"BUKA_GPS  ",0,1,0,0,0,
147.322,-33.703,28.126,73.623,0.568,0.558,0,19,1,"WWLG_GPS  ",0,1,0,0,0,
147.246,-6.226,16.815,43.476,1.7,1.4,-0.008,202,1,"INDA_GPS  ",0,1,0,0,0,
147.244,-42.739,23.906,72.305,2.207,1.799,0,19,1,"BRTN_GPS  ",0,1,0,0,0,
147.195,-5.962,17.059,37.264,1.8,1.3,0.003,202,1,"WASU_GPS  ",0,1,0,0,0,
147.187,-9.434,34.493,68.701,1.347,1.369,0,140,1,"NMB0_GPS  ",0,1,0,0,0,
147.146,-41.435,24.205,74.563,1.376,1.418,0,19,1,"LAUN_GPS  ",0,1,0,0,0,
147.056,-6.644,28.917,68.133,1.4,1.1,-0.003,202,1,"SITU_GPS  ",0,1,0,0,0,
147.056,-19.269,32.548,75.154,0.462,0.471,0,19,1,"TOW2_GPS  ",0,1,0,0,0,
147.052,-7.052,25.01,79.132,3.6,2,-0.024,123,1,"SALA_GPS  ",0,1,0,0,0,
147.032,-6.568,10.801,52.327,1.3,1.1,-0.003,202,1,"HOBU_GPS  ",0,1,0,0,0,
146.999,-6.733,31.54,72.02,2.2,1.4,-0.045,140,1,"LAE0_GPS  ",0,1,0,0,0,
146.993,-6.674,29.765,71.484,0.558,0.48,0,202,1,"LAE1_GPS  ",0,1,0,0,0,
146.913,-6.668,27.928,72.9,1.2,1,0.013,140,1,"BUBI_GPS  ",0,1,0,0,0,
146.867,-6.602,27.614,73.289,1.2,1,-0.005,202,1,"YALU_GPS  ",0,1,0,0,0,
146.83,-6.673,32.033,72.381,3.1,1.6,0.022,140,1,"OMSI_GPS  ",0,1,0,0,0,
146.747,-6.443,11.082,49.462,1.6,1.4,-0.005,202,1,"GAIX_GPS  ",0,1,0,0,0,
146.728,-6.573,28.814,74.257,1.1,0.9,0.013,140,1,"NADZ_GPS  ",0,1,0,0,0,
146.718,-6.461,18.288,54.855,1.9,1.3,-0.034,202,1,"KASU_GPS  ",0,1,0,0,0,
146.715,-6.488,17.395,55.854,1.4,1.2,0.004,202,1,"MUNG_GPS  ",0,1,0,0,0,
146.658,-36.346,27.516,73.987,0.764,1.647,0,19,1,"BEEC_GPS  ",0,1,0,0,0,
146.626,-7.207,27.463,79.334,1.8,1.4,-0.001,140,1,"BULO_GPS  ",0,1,0,0,0,
146.56,-5.954,15.078,51.218,3.5,2.6,0.018,202,1,"TEPT_GPS  ",0,1,0,0,0,
146.552,-6.539,27.113,71.716,1.7,1.4,-0.016,140,1,"TERE_GPS  ",0,1,0,0,0,
146.469,-6.135,13.522,51.897,1.6,1.3,0.002,202,1,"WANT_GPS  ",0,1,0,0,0,
146.459,-5.625,21.306,51.295,2.3,1.7,0.026,202,1,"SAID_GPS  ",0,1,0,0,0,
146.453,-6.347,15.372,58.993,5.1,2.8,0.051,202,1,"NARI_GPS  ",0,1,0,0,0,
146.425,-6.419,24.29,67.388,4.4,2.6,0.053,202,1,"SASI_GPS  ",0,1,0,0,0,
146.321,-6.395,28.388,66.963,1.7,1.4,0.019,140,1,"SANG_GPS  ",0,1,0,0,0,
146.227,-6.179,18.342,57.341,2.3,1.4,0.04,202,1,"NM31_GPS  ",0,1,0,0,0,
146.169,-6.212,29.451,66.927,2.2,1.5,0.033,73,1,"NM32_GPS  ",0,1,0,0,0,
146.101,-6.126,26.334,63.511,2.1,1.4,0.021,202,1,"NM36_GPS  ",0,1,0,0,0,
146.097,-6.164,28.342,64.71,1.9,1.4,0.047,73,1,"NM33_GPS  ",0,1,0,0,0,
146.091,-6.125,27.034,63.708,2.2,1.4,0.036,202,1,"NM35_GPS  ",0,1,0,0,0,
146.081,-6.148,28.14,65.807,1.7,1.3,0.012,73,1,"NM34_GPS  ",0,1,0,0,0,
145.915,-41.05,24.705,76.862,1.194,1.069,0,19,1,"BUR0_GPS  ",0,1,0,0,0,
145.905,-6.34,28.591,68.165,2.9,1.9,0.052,73,1,"AIYU_GPS  ",0,1,0,0,0,
145.832,17.309,-32.787,27.982,2.62,2.567,0,238,1,"GUGU_GPS  ",0,1,0,0,0,
145.801,43.367,-27.102,15.594,2.3,2.55,0,190,1,"0119_GPS  ",0,1,0,0,0,
145.782,-5.211,25.131,54.836,1.3,1,0.035,202,1,"MADA_GPS  ",0,1,0,0,0,
145.758,-16.936,36.894,76.333,1.758,1.352,0,19,1,"CRNS_GPS  ",0,1,0,0,0,
145.757,18.126,-33.943,28.078,3.169,3.071,0,238,1,"PAGA_GPS  ",0,1,0,0,0,
145.743,15.23,-21.935,30.898,0.626,0.501,0,238,1,"CNM0_GPS  ",0,1,0,0,0,
145.652,18.736,-43.899,28.067,5.207,3.867,0,238,1,"AGRI_GPS  ",0,1,0,0,0,
145.633,16.364,-24.989,26.32,2.752,2.567,0,238,1,"ANAT_GPS  ",0,1,0,0,0,
145.52,43.195,-28.633,18.97,1.96,2.46,0,190,1,"0519_GPS  ",0,1,0,0,0,
145.511,43.29,-26.344,18.739,2.46,2.88,0,190,1,"0006_GPS  ",0,1,0,0,0,
145.459,-5.597,24.932,63.159,2.2,1.7,0.018,202,1,"WALI_GPS  ",0,1,0,0,0,
145.392,-6.081,26.947,63.843,1.2,1,0.038,73,1,"GOKA_GPS  ",0,1,0,0,0,
145.259,43.232,-25.297,18.247,2.68,3.33,0,190,1,"0512_GPS  ",0,1,0,0,0,
145.214,-38.375,27.609,74.309,0.949,0.978,0,19,1,"STNY_GPS  ",0,1,0,0,0,
145.186,44.019,-9.307,14.397,2.94,2.78,0,190,1,"0109_GPS  ",0,1,0,0,0,
145.133,-37.913,28.336,74.552,0.358,0.413,0,19,1,"SG36_GPS  ",0,1,0,0,0,
145.131,43.662,-17.908,16.491,2.1,2.78,0,190,1,"0115_GPS  ",0,1,0,0,0,
145.13,43.07,-27.436,19.53,2.26,2.84,0,190,1,"0009_GPS  ",0,1,0,0,0,
145.115,43.383,-24.442,17.919,3.2,2.5,0,190,1,"0118_GPS  ",0,1,0,0,0,
144.987,43.549,-18.479,16.152,2.33,2.97,0,190,1,"0113_GPS  ",0,1,0,0,0,
144.975,-37.829,29.017,75.904,0.387,0.396,0,19,1,"MOBS_GPS  ",0,1,0,0,0,
144.968,-4.295,28.436,61.341,1.9,1.6,-0.005,202,1,"BOGI_GPS  ",0,1,0,0,0,
144.868,13.589,-11.661,22.833,0.308,0.259,0,238,1,"GUAM_GPS  ",0,1,0,0,0,
144.843,43.058,-25.991,18.624,1.97,2.43,0,190,1,"0125_GPS  ",0,1,0,0,0,
144.803,13.433,-11.165,22.155,0.42,0.345,0,238,1,"GUUG_GPS  ",0,1,0,0,0,
144.774,43.409,-22.15,18.226,2.4,2.48,0,190,1,"0116_GPS  ",0,1,0,0,0,
144.719,42.983,-26.167,18.229,1.88,2.45,0,190,1,"0531_GPS  ",0,1,0,0,0,
144.676,43.916,-10.405,15.233,2.28,3.09,0,190,1,"0004_GPS  ",0,1,0,0,0,
144.598,43.307,-22.015,18.894,3.2,3.11,0,190,1,"0515_GPS  ",0,1,0,0,0,
144.506,43.723,-12.352,11.882,1.91,3.16,0,190,1,"0784_GPS  ",0,1,0,0,0,
144.449,43.508,-17.822,16.934,2.19,2.79,0,190,1,"0005_GPS  ",0,1,0,0,0,
144.432,42.963,-21.82,17.072,2.57,3.94,0,190,1,"0010_GPS  ",0,1,0,0,0,
144.371,42.976,-20.482,20.231,2.449,1.952,0,190,1,"G203_GPS  ",0,1,0,0,0,
144.325,43.233,-20.907,17.929,2,2.59,0,190,1,"0122_GPS  ",0,1,0,0,0,
144.307,-5.832,29.725,66.281,1.6,1.3,0.003,73,1,"HAGE_GPS  ",0,1,0,0,0,
144.293,43.989,-9.928,8.274,1.93,3.13,0,190,1,"0505_GPS  ",0,1,0,0,0,
144.286,44.019,-11.279,13.735,0.723,0.65,0,190,1,"G202_GPS  ",0,1,0,0,0,
144.204,-36.031,29.722,74.089,0.961,0.898,0,19,1,"BROC_GPS  ",0,1,0,0,0,
144.127,43.121,-20.092,18.234,1.96,2.54,0,190,1,"0124_GPS  ",0,1,0,0,0,
144.115,43.828,-7.902,12.642,1.96,2.98,0,190,1,"0507_GPS  ",0,1,0,0,0,
144.08,43.439,-13.724,14.348,2.53,4.72,0,190,1,"0513_GPS  ",0,1,0,0,0,
144.03,44.064,-8.87,9.421,2.26,3.27,0,190,1,"0108_GPS  ",0,1,0,0,0,
143.927,42.895,-19.614,18.287,1.87,2.61,0,190,1,"0112_GPS  ",0,1,0,0,0,
143.902,43.102,-18.4,18.114,1.95,2.46,0,190,1,"0788_GPS  ",0,1,0,0,0,
143.804,50.292,4.208,1.911,2.73,2.75,0.006,190,1,"OKRG_GPS  ",0,1,0,0,0,
143.787,43.849,-6.947,10.48,2,2.8,0,190,1,"0114_GPS  ",0,1,0,0,0,
143.652,-38.78,28.593,74.2,1.514,1.455,0,19,1,"MNG0_GPS  ",0,1,0,0,0,
143.646,50.049,3.222,2.544,2.55,2.56,0.008,190,1,"PILG_GPS  ",0,1,0,0,0,
143.616,44.22,-3.502,8.877,1.8,2.45,0,190,1,"0503_GPS  ",0,1,0,0,0,
143.578,43.671,-5.92,10.203,2.3,3.17,0,190,1,"0511_GPS  ",0,1,0,0,0,
143.562,43.289,-15.961,13.05,1.93,2.56,0,190,1,"0121_GPS  ",0,1,0,0,0,
143.495,42.807,-14.899,12.245,0.837,0.979,0,190,1,"J791_GPS  ",0,1,0,0,0,
143.492,-32.864,31.359,74.328,1.046,0.883,0,19,1,"IHOE_GPS  ",0,1,0,0,0,
143.461,42.552,-21.986,18.447,1.76,2.54,0,190,1,"0138_GPS  ",0,1,0,0,0,
143.459,43.029,-17.486,14.788,2.46,3.73,0,190,1,"0011_GPS  ",0,1,0,0,0,
143.449,-37.588,29.754,75.183,1.114,1.216,0,19,1,"MTEM_GPS  ",0,1,0,0,0,
143.362,38.888,-39,18,2,1,0,234,1,"KAMN_GPS  ",0,1,0,0,0,
143.334,44.006,-5.544,9.791,2.04,2.53,0,190,1,"0111_GPS  ",0,1,0,0,0,
143.331,42.322,-24.159,16.97,3.34,3.1,0,190,1,"0015_GPS  ",0,1,0,0,0,
143.316,42.126,-24.629,14.888,2.5,2.46,0,190,1,"0532_GPS  ",0,1,0,0,0,
143.298,43.232,-15.594,13.156,1.86,2.52,0,190,1,"0123_GPS  ",0,1,0,0,0,
143.27,49.922,3.011,0.243,2.57,2.58,0.006,190,1,"PERV_GPS  ",0,1,0,0,0,
143.263,38.636,-32,4,12,5,0,234,1,"KAMS_GPS  ",0,1,0,0,0,
143.246,63.26,3.652,2.538,1.26,1.26,-0.004,190,1,"TOM1_GPS  ",0,1,0,0,0,
143.242,64.566,3.689,2.448,1.36,1.35,-0.001,190,1,"UNR1_GPS  ",0,1,0,0,0,
143.224,44.434,-0.626,8.606,2.01,3.01,0,190,1,"0002_GPS  ",0,1,0,0,0,
143.171,42.939,-17.874,17.359,1.75,2.5,0,190,1,"0521_GPS  ",0,1,0,0,0,
143.157,42.006,-21.008,12.548,2.08,3.23,0,234,1,"0019_GPS  ",0,1,0,0,0,
143.152,42.486,-21.261,13.717,2.21,2.43,0,190,1,"0793_GPS  ",0,1,0,0,0,
143.103,42.699,-18.66,16.31,1.83,2.42,0,190,1,"0134_GPS  ",0,1,0,0,0,
143.077,44.192,-2.598,8.577,2.13,2.91,0,190,1,"0504_GPS  ",0,1,0,0,0,
142.964,44.582,-1.541,5.822,2.02,2.64,0,190,1,"0502_GPS  ",0,1,0,0,0,
142.947,43.334,-13.438,11.17,1.9,2.29,0,190,1,"0786_GPS  ",0,1,0,0,0,
142.946,53.602,4.216,2.047,0.79,0.78,0.001,190,1,"OKHA_GPS  ",0,1,0,0,0,
142.936,44.332,-4.167,7.499,1.732,1.369,0,190,1,"J854_GPS  ",0,1,0,0,0,
142.935,42.131,-18.505,11.089,1.78,2.49,0,234,1,"0144_GPS  ",0,1,0,0,0,
142.917,38.081,-41,21,4,5,0,234,1,"MYGI_GPS  ",0,1,0,0,0,
142.903,43.771,-8.365,9.154,2.2,3.03,0,190,1,"0510_GPS  ",0,1,0,0,0,
142.87,43.014,-14.799,13.221,2.56,2.4,0,190,1,"0789_GPS  ",0,1,0,0,0,
142.849,-35.505,31.988,73.885,3.184,1.302,0,19,1,"SEAL_GPS  ",0,1,0,0,0,
142.837,-1.73,-68.791,39.86,1.1,1.1,0,201,1,"WUVU_GPS  ",0,1,0,0,0,
142.817,49.838,3.538,3.571,2.24,2.22,0.002,190,1,"PBDN_GPS  ",0,1,0,0,0,
142.81,43.166,-14.966,10.132,2.37,2.63,0,190,1,"0518_GPS  ",0,1,0,0,0,
142.759,48.573,2.405,3.512,2.64,2.65,0.004,190,1,"PORE_GPS  ",0,1,0,0,0,
142.718,44.78,-0.781,6.865,0.875,0.929,0,190,1,"J780_GPS  ",0,1,0,0,0,
142.717,47.03,1.742,5.09,0.501,0.595,0,190,1,"YSSK_GPS  ",0,1,0,0,0,
142.643,43.432,-10.748,9.451,2.39,2.38,0,190,1,"0787_GPS  ",0,1,0,0,0,
142.626,44.295,-2.182,7.159,1.83,2.56,0,190,1,"0107_GPS  ",0,1,0,0,0,
142.601,44.114,-2.884,5.905,0.971,1.142,0,190,1,"J858_GPS  ",0,1,0,0,0,
142.578,43.908,-3.345,7.841,1.81,2.76,0,190,1,"0506_GPS  ",0,1,0,0,0,
142.571,44.546,-2.636,6.087,1.365,1.534,0,190,1,"J853_GPS  ",0,1,0,0,0,
142.567,42.248,-13.544,8.12,1.79,2.42,0,234,1,"0142_GPS  ",0,1,0,0,0,
142.543,49.69,5.05,3.247,2.65,2.67,0.007,257,1,"AIVA_GPS  ",0,1,0,0,0,
142.537,45.002,-1.332,6.786,1.037,0.779,0,190,1,"J103_GPS  ",0,1,0,0,0,
142.482,43.59,-13.456,10.169,2.25,2.94,0,190,1,"0007_GPS  ",0,1,0,0,0,
142.433,38.149,-42,6,2,4,0,234,1,"MYGW_GPS  ",0,1,0,0,0,
142.41,43.739,-6.785,7.919,1.84,2.42,0,190,1,"0508_GPS  ",0,1,0,0,0,
142.402,42.981,-16.174,9.849,1.95,2.95,0,190,1,"0012_GPS  ",0,1,0,0,0,
142.395,43.336,-11.421,8.828,2.21,2.8,0,190,1,"0514_GPS  ",0,1,0,0,0,
142.365,42.357,-14.275,9.564,1.75,2.69,0,190,1,"0016_GPS  ",0,1,0,0,0,
142.352,45.127,0.314,5.991,1.82,2.53,0,190,1,"0779_GPS  ",0,1,0,0,0,
142.296,42.727,-14.31,8.715,1.72,2.47,0,190,1,"0133_GPS  ",0,1,0,0,0,
142.296,-10.59,36.942,74.231,1.158,0.814,0,19,1,"HNIS_GPS  ",0,1,0,0,0,
142.292,44.991,0.847,5.781,1.161,1.401,0,190,1,"J850_GPS  ",0,1,0,0,0,
142.265,44.365,-0.551,5.971,1.84,2.63,0,190,1,"0782_GPS  ",0,1,0,0,0,
142.265,44.728,-1.532,5.844,0.879,0.83,0,190,1,"J105_GPS  ",0,1,0,0,0,
142.195,27.068,-43.959,28.301,0.502,0.356,0,136,1,"CCJ0_GPS  ",0,1,0,0,0,
142.195,27.094,-43.454,27.991,0.772,0.445,0,136,1,"G213_GPS  ",0,1,0,0,0,
142.17,45.336,0.85,5.711,0.717,0.785,0,190,1,"J101_GPS  ",0,1,0,0,0,
142.163,26.635,-42.631,29.184,0.91,0.75,0,136,1,"0603_GPS  ",0,1,0,0,0,
142.157,49.637,3.36,2.804,2.55,2.56,0.006,257,1,"BOSH_GPS  ",0,1,0,0,0,
142.152,44.007,-3.466,6.745,1.9,2.53,0,190,1,"0110_GPS  ",0,1,0,0,0,
142.085,42.934,-11.133,8.056,1.76,2.26,0,190,1,"0790_GPS  ",0,1,0,0,0,
142.081,37.166,-23,0,7,7,0,234,1,"FUKU_GPS  ",0,1,0,0,0,
142.065,49.076,5.779,4.032,0.8,1,0,257,1,"UGLG_GPS  ",0,1,0,0,0,
142.057,-29.45,32.95,74.036,0.752,0.67,0,19,1,"TBOB_GPS  ",0,1,0,0,0,
142.039,44.743,0.615,5.388,2.305,2.653,0,190,1,"J852_GPS  ",0,1,0,0,0,
142.022,44.916,1.052,5.937,1.467,1.471,0,190,1,"J851_GPS  ",0,1,0,0,0,
141.955,39.458,-13.258,7.27,1.86,2.1,0,234,1,"0167_GPS  ",0,1,0,0,0,
141.955,45.514,1.9,6.335,0.765,0.708,0,190,1,"J848_GPS  ",0,1,0,0,0,
141.951,39.869,-10.689,5.499,0.87,0.87,0,234,1,"0162_GPS  ",0,1,0,0,0,
141.94,39.572,-11.523,7.848,2.07,2.51,0,234,1,"0028_GPS  ",0,1,0,0,0,
141.92,-12.678,37.16,73.891,1.02,0.665,0,19,1,"WEIP_GPS  ",0,1,0,0,0,
141.891,43.248,-10.967,5.95,1.71,2.35,0,190,1,"0516_GPS  ",0,1,0,0,0,
141.882,45.23,1.465,5.647,0.886,0.758,0,190,1,"J849_GPS  ",0,1,0,0,0,
141.874,43.741,-3.714,6.468,1.87,2.77,0,14,1,"0509_GPS  ",0,1,0,0,0,
141.872,44.318,1.264,3.857,1.445,1.613,0,14,1,"J855_GPS  ",0,1,0,0,0,
141.864,42.729,-11.25,5.597,2.36,2.89,0,190,1,"0132_GPS  ",0,1,0,0,0,
141.845,43.529,-7.328,7.36,0.756,1.105,0,14,1,"STK0_GPS  ",0,1,0,0,0,
141.804,39.849,-10.403,5.829,2.26,2.25,0,234,1,"0164_GPS  ",0,1,0,0,0,
141.798,39.254,-15.998,10.489,2.23,2.31,0,234,1,"0170_GPS  ",0,1,0,0,0,
141.794,44.64,2.465,5.027,1.67,2.5,0,14,1,"0781_GPS  ",0,1,0,0,0,
141.789,40.133,-7.895,5.796,2.04,2.48,0,234,1,"0027_GPS  ",0,1,0,0,0,
141.756,44.398,1.604,6.502,1.88,3.15,0,14,1,"0003_GPS  ",0,1,0,0,0,
141.753,39.02,-22.928,9.574,1.063,0.771,0,234,1,"G205_GPS  ",0,1,0,0,0,
141.75,45.403,2.406,5.338,0.706,0.769,0,14,1,"J001_GPS  ",0,1,0,0,0,
141.741,44.892,2.964,4.526,1.072,1.045,0,14,1,"J104_GPS  ",0,1,0,0,0,
141.74,39.024,-20.145,11.871,1.8,2.04,0,234,1,"0171_GPS  ",0,1,0,0,0,
141.731,42.983,-10.646,5.68,2.51,3,0,14,1,"0014_GPS  ",0,1,0,0,0,
141.713,40.405,-8.669,5.966,2.24,2.23,0,234,1,"0158_GPS  ",0,1,0,0,0,
141.685,45.408,2.17,5.875,1.05,0.684,0,14,1,"G201_GPS  ",0,1,0,0,0,
141.675,39.596,-16.993,9.502,1.359,0.867,0,234,1,"J547_GPS  ",0,1,0,0,0,
141.665,44.149,0.278,6.1,1.68,2.42,0,14,1,"0783_GPS  ",0,1,0,0,0,
141.646,-36.308,30.849,73.854,0.82,0.768,0,19,1,"NHIL_GPS  ",0,1,0,0,0,
141.613,-38.344,29.528,74.052,0.907,0.875,0,19,1,"PTLD_GPS  ",0,1,0,0,0,
141.602,42.656,-9.778,4.931,1.77,2.5,0,14,1,"0136_GPS  ",0,1,0,0,0,
141.598,45.22,4.342,5.761,1.83,2.57,0,14,1,"0778_GPS  ",0,1,0,0,0,
141.577,42.884,-7.779,5.258,1.77,2.34,0,14,1,"0522_GPS  ",0,1,0,0,0,
141.575,39.143,-17.053,11.608,2.62,2.59,0,234,1,"0546_GPS  ",0,1,0,0,0,
141.573,38.903,-21.893,12.227,1.68,2.01,0,234,1,"0172_GPS  ",0,1,0,0,0,
141.54,43.078,-7.404,4.583,1.71,2.4,0,14,1,"0520_GPS  ",0,1,0,0,0,
141.534,39.338,-14.488,11.502,1.81,2.08,0,234,1,"0169_GPS  ",0,1,0,0,0,
141.511,40.515,-8.1,6.419,2.04,2.24,0,234,1,"0156_GPS  ",0,1,0,0,0,
141.51,43.854,-4.145,7.146,0.87,0.87,0.001,14,1,"0008_GPS  ",0,1,0,0,0,
141.501,38.301,-27.191,12.828,2.57,2.25,0,234,1,"0550_GPS  ",0,1,0,0,0,
141.462,40.049,-7.275,7.802,2.13,2.32,0,234,1,"0160_GPS  ",0,1,0,0,0,
141.453,39.849,-10.373,8.361,1.72,1.93,0,234,1,"0795_GPS  ",0,1,0,0,0,
141.449,38.683,-26.564,12.598,0.87,0.87,0,234,1,"0175_GPS  ",0,1,0,0,0,
141.448,41.405,-8.925,7.701,1.99,2.41,0,234,1,"0533_GPS  ",0,1,0,0,0,
141.441,38.449,-26.518,13.28,2.16,2.3,0,234,1,"0036_GPS  ",0,1,0,0,0,
141.431,43.405,-6.071,4.419,0.87,0.87,0.001,14,1,"0117_GPS  ",0,1,0,0,0,
141.407,42.773,-4.32,5.055,1.98,2.86,0,14,1,"0523_GPS  ",0,1,0,0,0,
141.376,40.676,-7.776,6.361,1.73,2.2,0,234,1,"0539_GPS  ",0,1,0,0,0,
141.371,43.624,-1.866,4.75,1.72,2.38,0,14,1,"0785_GPS  ",0,1,0,0,0,
141.368,40.968,-7.559,6.911,1.98,2.31,0,234,1,"0152_GPS  ",0,1,0,0,0,
141.361,42.55,-9.206,5.519,1.92,2.71,0,14,1,"0139_GPS  ",0,1,0,0,0,
141.33,44.427,2.967,4.875,1.74,2.6,0,14,1,"0106_GPS  ",0,1,0,0,0,
141.294,40.291,-5.52,7.38,2.22,2.25,0,234,1,"0159_GPS  ",0,1,0,0,0,
141.29,42.971,-6.384,4.11,1.81,2.52,0,14,1,"0128_GPS  ",0,1,0,0,0,
141.275,38.9,-21.897,12.898,2.72,2.43,0,234,1,"0545_GPS  ",0,1,0,0,0,
141.225,39.981,-7.65,9.161,1.85,2.34,0,234,1,"0161_GPS  ",0,1,0,0,0,
141.213,38.425,-23.701,12.299,2.58,2.19,0,234,1,"0549_GPS  ",0,1,0,0,0,
141.213,41.301,-6.474,6.439,2.16,2.68,0,234,1,"0024_GPS  ",0,1,0,0,0,
141.204,39.111,-17.655,10.072,0.745,0.712,0,234,1,"MZS0_GPS  ",0,1,0,0,0,
141.198,40.625,-5.14,6.547,1.92,2.27,0,234,1,"0153_GPS  ",0,1,0,0,0,
141.172,39.597,-10.344,11.944,1.79,2.09,0,234,1,"0166_GPS  ",0,1,0,0,0,
141.167,45.138,6.968,4.843,1.99,2.88,0,14,1,"0501_GPS  ",0,1,0,0,0,
141.165,39.851,-8.948,10.442,2.27,2.32,0,234,1,"0163_GPS  ",0,1,0,0,0,
141.148,38.539,-22.541,13.31,1.89,1.79,0,234,1,"0176_GPS  ",0,1,0,0,0,
141.141,41.834,-10.804,11.03,2.21,2.86,0,234,1,"0148_GPS  ",0,1,0,0,0,
141.133,39.135,-21.298,9.959,1.585,1.177,0,234,1,"MIZU_GPS  ",0,1,0,0,0,
141.132,40.862,-5.847,8.089,1.93,2.18,0,234,1,"0537_GPS  ",0,1,0,0,0,
141.081,42.421,-9.125,9.501,3.16,3.18,0,234,1,"0792_GPS  ",0,1,0,0,0,
141.076,40.291,-3.44,8.641,2.02,2.43,0,234,1,"0157_GPS  ",0,1,0,0,0,
141.075,42.668,-8.278,2.59,2.42,3.25,0,14,1,"0135_GPS  ",0,1,0,0,0,
141.066,39.953,-0.019,14.099,2.8,3.32,0,234,1,"0543_GPS  ",0,1,0,0,0,
141.055,39.363,-10.843,13.258,1.83,2.04,0,234,1,"0168_GPS  ",0,1,0,0,0,
141.038,45.276,7.125,4.93,0.719,0.644,0,14,1,"J102_GPS  ",0,1,0,0,0,
141.031,43.178,-4.351,4.805,1.97,2.97,0,14,1,"0013_GPS  ",0,1,0,0,0,
141.007,37.534,-21.93,10.711,1.82,1.57,0,234,1,"0203_GPS  ",0,1,0,0,0,
140.994,37.285,-20.808,9.559,2.04,1.81,0,234,1,"0208_GPS  ",0,1,0,0,0,
140.991,38.815,-16.753,13.659,1.78,1.83,0,234,1,"0173_GPS  ",0,1,0,0,0,
140.988,39.127,-7.99,11.649,3.2,2.42,0,234,1,"0796_GPS  ",0,1,0,0,0,
140.965,39.701,-3.735,7.087,3.727,5.437,0,234,1,"0165_GPS  ",0,1,0,0,0,
140.964,39.701,-7.103,11.415,2.17,2.51,0,234,1,"0165_GPS  ",0,1,0,0,0,
140.962,37.831,-23.007,9.01,1.366,0.947,0,234,1,"G106_GPS  ",0,1,0,0,0,
140.954,38.317,-21.62,11.103,1.91,2.19,0,234,1,"0037_GPS  ",0,1,0,0,0,
140.946,37.818,-21.406,10.223,2.02,2.04,0,234,1,"0558_GPS  ",0,1,0,0,0,
140.942,42.374,-6.227,6.282,2.62,3.95,0,234,1,"0018_GPS  ",0,1,0,0,0,
140.908,37.801,-22.334,10.788,2.1,2.17,0,234,1,"0038_GPS  ",0,1,0,0,0,
140.903,37.091,-19.725,12.068,2.14,2.26,0,234,1,"0041_GPS  ",0,1,0,0,0,
140.899,42.559,-4.91,5.106,1.93,2.74,0,14,1,"0524_GPS  ",0,1,0,0,0,
140.883,42.858,-6.576,4.055,2.15,3.18,0,14,1,"0129_GPS  ",0,1,0,0,0,
140.881,41.455,-4.945,6.394,1.75,2.36,0,234,1,"0150_GPS  ",0,1,0,0,0,
140.876,42.474,-5.084,3.973,2.06,3.16,0,14,1,"0526_GPS  ",0,1,0,0,0,
140.872,40.913,-4.649,5.322,1.82,2.26,0,234,1,"0536_GPS  ",0,1,0,0,0,
140.859,40.897,-7.426,9.277,1.36,1.128,0,234,1,"G103_GPS  ",0,1,0,0,0,
140.858,43.21,2.132,3.779,1.209,1.209,0,14,1,"G101_GPS  ",0,1,0,0,0,
140.851,38.412,-12.66,5.15,1.372,0.81,0,234,1,"J177_GPS  ",0,1,0,0,0,
140.848,38.546,-17.777,11.42,2.73,2.33,0,234,1,"0548_GPS  ",0,1,0,0,0,
140.844,38.03,-21.407,10.959,1.91,1.65,0,234,1,"0179_GPS  ",0,1,0,0,0,
140.842,37.018,-20.185,8.369,2.1,2.1,0,234,1,"0800_GPS  ",0,1,0,0,0,
140.837,35.726,-6.97,9.524,0.38,0.43,0,234,1,"3022_GPS  ",0,1,0,0,0,
140.834,37.325,-19.37,9.797,2.31,2.02,0,234,1,"0562_GPS  ",0,1,0,0,0,
140.83,40.841,-3.088,6.196,1.91,2.64,0,234,1,"0025_GPS  ",0,1,0,0,0,
140.826,42.646,-8.786,3.347,1.75,2.54,0,14,1,"0137_GPS  ",0,1,0,0,0,
140.823,40.045,-2.958,13.806,2.33,2.53,0,15,1,"0798_GPS  ",0,1,0,0,0,
140.822,41.146,-3.374,6.136,2.04,2.69,0,234,1,"0535_GPS  ",0,1,0,0,0,
140.806,42.043,-4.218,5.624,2.03,2.72,0,234,1,"0147_GPS  ",0,1,0,0,0,
140.803,40.644,-1.979,7.004,1.89,2.66,0,15,1,"0541_GPS  ",0,1,0,0,0,
140.802,38.749,-16.664,13.273,2.65,2.06,0,234,1,"0174_GPS  ",0,1,0,0,0,
140.787,40.215,-2.848,9.851,1.76,2.21,0,15,1,"0183_GPS  ",0,1,0,0,0,
140.781,-37.833,32.747,74.5,1.889,1.225,0,19,1,"MTGA_GPS  ",0,1,0,0,0,
140.769,39.351,-9.525,12.979,1.95,2.21,0,234,1,"0544_GPS  ",0,1,0,0,0,
140.768,42.551,-6.94,5.109,1.94,2.84,0,14,1,"0525_GPS  ",0,1,0,0,0,
140.755,37.561,-20.506,8.647,1.91,1.72,0,234,1,"0201_GPS  ",0,1,0,0,0,
140.754,36.8,-11.434,9.092,0.96,0.5,0,234,1,"0214_GPS  ",0,1,0,0,0,
140.748,41.826,-5.186,6.246,1.81,2.76,0,234,1,"0022_GPS  ",0,1,0,0,0,
140.733,39.703,-2.584,7.394,3.12,2.95,0,15,1,"0553_GPS  ",0,1,0,0,0,
140.725,41.782,-2.462,7.62,1.171,1.289,0,234,1,"G204_GPS  ",0,1,0,0,0,
140.715,41.977,-4.731,5.151,1.88,2.5,0,234,1,"0529_GPS  ",0,1,0,0,0,
140.704,-2.515,14.775,63.802,1.433,1.043,0,67,1,"ANGS_GPS  ",0,1,0,0,0,
140.667,42.123,-7.338,7.305,1.78,2.49,0,234,1,"0528_GPS  ",0,1,0,0,0,
140.662,37.325,-18.923,8.715,2.01,1.63,0,234,1,"0205_GPS  ",0,1,0,0,0,
140.658,35.955,-12.916,8.489,0.898,0.766,0,234,1,"KSMV_GPS  ",0,1,0,0,0,
140.647,35.777,-6.986,10.217,0.37,0.43,0,234,1,"3021_GPS  ",0,1,0,0,0,
140.646,37.984,-18.524,8.163,2.48,1.91,0,234,1,"0797_GPS  ",0,1,0,0,0,
140.643,38.206,-18.321,8.511,2.38,1.8,0,234,1,"0178_GPS  ",0,1,0,0,0,
140.636,41.043,-2.987,6.061,1.86,2.36,0,15,1,"0151_GPS  ",0,1,0,0,0,
140.63,39.052,-9.342,15.29,1.81,3.51,0,15,1,"0193_GPS  ",0,1,0,0,0,
140.612,36.54,-10.902,6.541,0.78,0.53,0,234,1,"0042_GPS  ",0,1,0,0,0,
140.604,42.803,-11.34,2.966,2.54,3.26,0,14,1,"0130_GPS  ",0,1,0,0,0,
140.6,-34.286,31.555,73.834,1.617,1.487,0,19,1,"BERI_GPS  ",0,1,0,0,0,
140.597,39.749,-3.724,9.364,2.08,2.57,0,15,1,"0187_GPS  ",0,1,0,0,0,
140.597,43.293,-3.126,4.364,2.05,2.64,0,14,1,"0120_GPS  ",0,1,0,0,0,
140.596,39.508,-6.682,8.604,1.107,0.947,0,15,1,"J926_GPS  ",0,1,0,0,0,
140.589,40.706,-2.98,6.494,1.74,2.32,0,15,1,"0538_GPS  ",0,1,0,0,0,
140.578,40.524,-2.772,7.522,1.67,2.36,0,15,1,"0155_GPS  ",0,1,0,0,0,
140.577,40.325,-3.18,11.932,1.83,2.4,0,15,1,"0181_GPS  ",0,1,0,0,0,
140.569,42.099,-6.231,6.101,1.85,2.5,0,234,1,"0146_GPS  ",0,1,0,0,0,
140.562,37.089,-17.331,9.141,1.81,1.79,0,234,1,"0211_GPS  ",0,1,0,0,0,
140.56,39.327,-2.818,10.731,1.68,2.49,0,15,1,"0190_GPS  ",0,1,0,0,0,
140.544,36.181,-9.95,8.382,0.64,0.38,0,234,1,"3004_GPS  ",0,1,0,0,0,
140.544,42.985,-5.544,4.308,1.9,2.75,0,14,1,"0127_GPS  ",0,1,0,0,0,
140.516,-2.556,12.21,55.429,1.5,0.6,0,67,1,"SENT_GPS  ",0,1,0,0,0,
140.516,-2.574,13.035,57.219,0.52,0.32,0.005,67,1,"SENT_GPS  ",0,1,0,0,0,
140.513,-35.326,31.594,71.763,0.787,0.864,0,19,1,"LAM1_GPS  ",0,1,0,0,0,
140.507,39.199,-6.654,12.413,2.58,2.55,0,15,1,"0554_GPS  ",0,1,0,0,0,
140.499,43.057,-4.726,4.025,0.87,0.87,0.001,14,1,"0126_GPS  ",0,1,0,0,0,
140.498,36.743,-11.642,8.446,0.84,0.43,0,234,1,"0581_GPS  ",0,1,0,0,0,
140.493,-34.71,33.082,74,1.451,1.882,0,19,1,"ALW0_GPS  ",0,1,0,0,0,
140.491,41.185,-2.501,7.9,2.23,2.7,0,15,1,"0534_GPS  ",0,1,0,0,0,
140.479,40.624,-1.322,5.379,1.86,2.65,0,15,1,"0540_GPS  ",0,1,0,0,0,
140.476,36.344,-10.364,8.262,0.68,0.38,0,234,1,"0216_GPS  ",0,1,0,0,0,
140.466,37.683,-17.955,7.838,2.06,1.89,0,234,1,"0200_GPS  ",0,1,0,0,0,
140.452,40.91,-2.336,6.245,1.66,2.26,0,15,1,"0542_GPS  ",0,1,0,0,0,
140.448,35.642,-8.974,11.388,0.35,0.44,0,234,1,"3024_GPS  ",0,1,0,0,0,
140.443,37.99,-15.472,8.644,1.96,1.74,0,234,1,"0180_GPS  ",0,1,0,0,0,
140.414,-8.467,40.768,72.924,1.5,0.4,-0.001,19,1,"AUKE_GPS  ",0,1,0,0,0,
140.414,-8.518,37.522,74.844,0.15,0.12,0.001,19,1,"BUKE_GPS  ",0,1,0,0,0,
140.413,36.862,-11.83,8.434,0.83,0.44,0,234,1,"0212_GPS  ",0,1,0,0,0,
140.407,35.803,-7.124,10.853,0.34,0.43,0,234,1,"3015_GPS  ",0,1,0,0,0,
140.403,35.97,-9.837,7.812,0.5,0.45,0,234,1,"3010_GPS  ",0,1,0,0,0,
140.402,40.007,-3.156,10.018,1.67,2.12,0,15,1,"0185_GPS  ",0,1,0,0,0,
140.387,39.549,-4.719,10.825,1.71,2.2,0,15,1,"0189_GPS  ",0,1,0,0,0,
140.386,36.476,-10.957,8.57,0.64,0.38,0,234,1,"0947_GPS  ",0,1,0,0,0,
140.385,35.243,-13.748,19.591,0.36,0.43,0,234,1,"0226_GPS  ",0,1,0,0,0,
140.373,37.621,-16.799,6.875,4.27,2.35,0,234,1,"0560_GPS  ",0,1,0,0,0,
140.371,41.935,-5.783,5.674,1.9,2.23,0,15,1,"0794_GPS  ",0,1,0,0,0,
140.366,38.331,-14.54,9.883,1.75,2.17,0,234,1,"0035_GPS  ",0,1,0,0,0,
140.365,38.497,-18.957,5.674,2.68,2.44,0,15,1,"0556_GPS  ",0,1,0,0,0,
140.354,42.494,-8.925,4.562,2.3,2.43,0,15,1,"0140_GPS  ",0,1,0,0,0,
140.343,36.097,-10.017,8.154,0.57,0.42,0,234,1,"3006_GPS  ",0,1,0,0,0,
140.337,35.421,-17.417,16.693,0.41,0.4,0,234,1,"3033_GPS  ",0,1,0,0,0,
140.325,37.362,-15.947,6.837,2.3,2.14,0,234,1,"0039_GPS  ",0,1,0,0,0,
140.319,38.759,-9.206,11.747,2.6,2.49,0,15,1,"0033_GPS  ",0,1,0,0,0,
140.318,35.53,-12.018,13.119,2.07,2.52,0,234,1,"3027_GPS  ",0,1,0,0,0,
140.316,41.599,-3.886,5.418,0.87,0.87,0,15,1,"0149_GPS  ",0,1,0,0,0,
140.315,35.717,-7.596,10.4,0.32,0.42,0,234,1,"3020_GPS  ",0,1,0,0,0,
140.296,36.779,-11.554,8.707,0.74,0.45,0,234,1,"0965_GPS  ",0,1,0,0,0,
140.293,36.651,-11.366,8.057,0.78,0.77,0,234,1,"0213_GPS  ",0,1,0,0,0,
140.273,40.779,-1.752,6.46,1.76,2.76,0,15,1,"0026_GPS  ",0,1,0,0,0,
140.271,38.148,-12.449,10.221,2.03,2.07,0,234,1,"0557_GPS  ",0,1,0,0,0,
140.268,35.166,-15.494,20.394,0.35,0.45,0,234,1,"3041_GPS  ",0,1,0,0,0,
140.264,40.271,-3.144,9.229,1.61,2.16,0,15,1,"0182_GPS  ",0,1,0,0,0,
140.26,37.126,-15.227,4.91,0.87,0.87,0,234,1,"0210_GPS  ",0,1,0,0,0,
140.25,42.244,-9.82,4.258,2.04,2.46,0,15,1,"0143_GPS  ",0,1,0,0,0,
140.249,35.129,-14.038,19.167,0.445,0.391,0,234,1,"G107_GPS  ",0,1,0,0,0,
140.249,35.288,-17.849,22.836,2.4,2.926,0,234,1,"0756_GPS  ",0,1,0,0,0,
140.234,39.658,-0.645,10.476,1.82,2.14,0,15,1,"0188_GPS  ",0,1,0,0,0,
140.233,42.786,-10.969,4.395,2.46,2.51,0,15,1,"0131_GPS  ",0,1,0,0,0,
140.206,37.616,-14.201,7.071,2.92,2.49,0,234,1,"0559_GPS  ",0,1,0,0,0,
140.202,36.031,-9.946,8.404,0.43,0.39,0,234,1,"0584_GPS  ",0,1,0,0,0,
140.2,38.289,-11.255,9.231,1.61,1.47,0,15,1,"0803_GPS  ",0,1,0,0,0,
140.187,35.544,-10.463,12.993,0.885,0.846,0,234,1,"I025_GPS  ",0,1,0,0,0,
140.183,38.938,-5.227,6.174,1.241,0.784,0,15,1,"J930_GPS  ",0,1,0,0,0,
140.179,36.542,-11.249,8.361,0.63,0.42,0,234,1,"0590_GPS  ",0,1,0,0,0,
140.174,36.263,-10.615,9.27,0.61,0.43,0,234,1,"3002_GPS  ",0,1,0,0,0,
140.165,36.952,-13.984,6.976,1.72,1.93,0,234,1,"0585_GPS  ",0,1,0,0,0,
140.162,39.164,-5.386,10.486,2.24,2.36,0,15,1,"0192_GPS  ",0,1,0,0,0,
140.158,36.692,-11.706,8.928,0.69,0.41,0,234,1,"0588_GPS  ",0,1,0,0,0,
140.147,35.333,-14.49,18.907,0.35,0.45,0,234,1,"3037_GPS  ",0,1,0,0,0,
140.145,35.874,-9.201,8.546,0.38,0.42,0,234,1,"3014_GPS  ",0,1,0,0,0,
140.136,37.425,-14.136,7.402,2.48,2.15,0,234,1,"0561_GPS  ",0,1,0,0,0,
140.132,39.936,-1.614,9.132,1.62,2.15,0,15,1,"0186_GPS  ",0,1,0,0,0,
140.107,42.008,-8.127,8.251,0.88,0.88,0.001,15,1,"0021_GPS  ",0,1,0,0,0,
140.095,38.434,-9.505,8.446,2.65,2.05,0,15,1,"0799_GPS  ",0,1,0,0,0,
140.094,37.964,-12.654,9.066,1.61,1.62,0,15,1,"0198_GPS  ",0,1,0,0,0,
140.087,36.106,-12.995,8.651,0.28,0.295,0,234,1,"TSKB_GPS  ",0,1,0,0,0,
140.079,35.112,-19.361,21.597,0.34,0.5,0,234,1,"3044_GPS  ",0,1,0,0,0,
140.078,36.365,-10.757,8.916,0.58,0.41,0,234,1,"0215_GPS  ",0,1,0,0,0,
140.078,38.198,-12.995,11.913,2.22,1.92,0,15,1,"0199_GPS  ",0,1,0,0,0,
140.073,37.567,-13.031,6.793,1.75,1.65,0,234,1,"0202_GPS  ",0,1,0,0,0,
140.071,41.803,-9.3,8.442,2.43,2.44,0,15,1,"0530_GPS  ",0,1,0,0,0,
140.051,35.448,-12.557,15.493,0.3,0.44,0,234,1,"3030_GPS  ",0,1,0,0,0,
140.048,35.657,-8.753,11.912,0.31,0.44,0,234,1,"0225_GPS  ",0,1,0,0,0,
140.048,39.399,-2.845,10.09,1.71,2.3,0,15,1,"0031_GPS  ",0,1,0,0,0,
140.045,39.826,-1.867,10.039,2.61,3.13,0,15,1,"0552_GPS  ",0,1,0,0,0,
140.045,40.236,-3.225,9.049,1.59,2.27,0,15,1,"X184_GPS  ",0,1,0,0,0,
140.041,41.466,-1.621,6.289,2,2.76,0,15,1,"0023_GPS  ",0,1,0,0,0,
140.039,36.854,-12.282,9.23,0.72,0.48,0,234,1,"0217_GPS  ",0,1,0,0,0,
140.025,35.786,-8.672,10.678,0.32,0.41,0,234,1,"3018_GPS  ",0,1,0,0,0,
140.005,-34.196,32.817,73.786,0.893,0.819,0,19,1,"WAIK_GPS  ",0,1,0,0,0,
140.004,42.131,-9.137,5.964,2.04,2.56,0,15,1,"0145_GPS  ",0,1,0,0,0,
140.002,-66.665,22.767,4.648,0.406,0.423,0,4,1,"DUM1_GPS  ",0,1,0,0,0,
139.993,35.94,-13.114,8.791,1.836,1.895,0,234,1,"3012_GPS  ",0,1,0,0,0,
139.988,36.301,-10.626,9.043,0.56,0.41,0,234,1,"0582_GPS  ",0,1,0,0,0,
139.975,35.003,-19.684,28.322,0.35,0.44,0,234,1,"0227_GPS  ",0,1,0,0,0,
139.968,35.144,-19.407,23.011,0.33,0.47,0,234,1,"0959_GPS  ",0,1,0,0,0,
139.957,38.76,-7.165,8.537,1.56,1.97,0,15,1,"0195_GPS  ",0,1,0,0,0,
139.954,35.255,-17.608,20.329,0.35,0.5,0,234,1,"3045_GPS  ",0,1,0,0,0,
139.931,36.115,-8.489,10.435,0.43,0.38,0,234,1,"0583_GPS  ",0,1,0,0,0,
139.928,40.578,-5.435,6.846,0.87,0.87,0,15,1,"0154_GPS  ",0,1,0,0,0,
139.927,39.016,-3.752,9.163,2.45,2.31,0,15,1,"0555_GPS  ",0,1,0,0,0,
139.923,36.599,-11.51,9.044,0.61,0.43,0,234,1,"0219_GPS  ",0,1,0,0,0,
139.908,39.206,-0.826,8.85,1.68,1.87,0,15,1,"0191_GPS  ",0,1,0,0,0,
139.903,36.456,-11.326,8.841,0.54,0.38,0,234,1,"0951_GPS  ",0,1,0,0,0,
139.902,35.675,-9.205,11.021,0.33,0.46,0,234,1,"3023_GPS  ",0,1,0,0,0,
139.887,-35.097,33.175,72.895,0.902,1.081,0,19,1,"KARO_GPS  ",0,1,0,0,0,
139.871,37.261,-10.692,5.604,1.66,1.5,0,15,1,"0209_GPS  ",0,1,0,0,0,
139.864,34.954,-20.161,30.956,0.37,0.51,0,234,1,"3047_GPS  ",0,1,0,0,0,
139.858,42.451,-12.45,5.883,2.61,2.83,0,15,1,"0017_GPS  ",0,1,0,0,0,
139.854,36.776,-12.319,8.554,0.67,0.46,0,15,1,"0587_GPS  ",0,1,0,0,0,
139.853,-35.691,32.47,74.01,0.823,0.84,0,19,1,"CNLP_GPS  ",0,1,0,0,0,
139.849,39.891,1.333,8.741,2.69,2.83,0,15,1,"0551_GPS  ",0,1,0,0,0,
139.844,35.144,-19.722,25.253,0.33,0.44,0,234,1,"3039_GPS  ",0,1,0,0,0,
139.832,38.594,-7.459,8.087,0.87,0.87,0,15,1,"0196_GPS  ",0,1,0,0,0,
139.826,35.312,-17.163,19.5,0.32,0.44,0,234,1,"3036_GPS  ",0,1,0,0,0,
139.825,34.919,-17.551,30.502,0.472,0.425,0,234,1,"G206_GPS  ",0,1,0,0,0,
139.813,35.78,-9.798,10.598,0.34,0.41,0,234,1,"3016_GPS  ",0,1,0,0,0,
139.811,36.204,-10.496,9.458,0.47,0.4,0,15,1,"3003_GPS  ",0,1,0,0,0,
139.809,38.895,-3.696,9.896,1.62,2.21,0,15,1,"0032_GPS  ",0,1,0,0,0,
139.806,36.98,-10.927,7.297,2.21,2.34,0,15,1,"0586_GPS  ",0,1,0,0,0,
139.8,36.011,-9.685,10.547,0.38,0.34,0,234,1,"3008_GPS  ",0,1,0,0,0,
139.798,36.011,-13.005,9.618,1.772,1.712,0,234,1,"3008_GPS  ",0,1,0,0,0,
139.797,33.12,-23.441,28.159,1.311,1.582,0,136,1,"I113_GPS  ",0,1,0,0,0,
139.796,35.896,-9.761,10.395,0.36,0.38,0,234,1,"0224_GPS  ",0,1,0,0,0,
139.792,37.644,-10.171,7.563,1.84,2.06,0,15,1,"0040_GPS  ",0,1,0,0,0,
139.776,39.968,0.68,9.462,1.88,2.54,0,15,1,"0030_GPS  ",0,1,0,0,0,
139.765,32.464,-27.804,29.038,1.443,0.659,0,136,1,"J602_GPS  ",0,1,0,0,0,
139.753,36.538,-11.153,8.93,0.56,0.4,0,15,1,"0950_GPS  ",0,1,0,0,0,
139.742,38.146,-9.741,8.457,1.8,1.77,0,15,1,"0197_GPS  ",0,1,0,0,0,
139.726,36.402,-11.334,8.477,0.52,0.42,0,15,1,"0043_GPS  ",0,1,0,0,0,
139.703,39.942,-0.232,6.876,0.41,0.41,0,15,1,"G104_GPS  ",0,1,0,0,0,
139.673,35.563,-10.932,14.119,0.32,0.49,0,234,1,"3026_GPS  ",0,1,0,0,0,
139.665,35.267,-18.463,22.717,0.37,0.46,0,234,1,"3067_GPS  ",0,1,0,0,0,
139.662,-34.695,31.856,72.443,0.919,0.896,0,19,1,"NILD_GPS  ",0,1,0,0,0,
139.654,35.436,-14.476,16.916,0.31,0.39,0,234,1,"3032_GPS  ",0,1,0,0,0,
139.652,35.937,-11.623,7.136,0.45,0.48,0,15,1,"3013_GPS  ",0,1,0,0,0,
139.643,35.759,-10.037,12.074,0.41,0.36,0,234,1,"3017_GPS  ",0,1,0,0,0,
139.641,49.079,10.535,2.46,1.6,1.2,0,257,1,"VANI_GPS  ",0,1,0,0,0,
139.637,36.087,-9.909,10.993,0.41,0.4,0,15,1,"3007_GPS  ",0,1,0,0,0,
139.631,35.664,-12.062,12.992,0.34,0.43,0,234,1,"0228_GPS  ",0,1,0,0,0,
139.624,35.132,-6.985,28.344,4.047,2.657,0,234,1,"3041_GPS  ",0,1,0,0,0,
139.619,36.666,-11.146,9.162,0.63,0.49,0,15,1,"0218_GPS  ",0,1,0,0,0,
139.616,35.16,-17.51,24.76,0.323,0.335,0,234,1,"G108_GPS  ",0,1,0,0,0,
139.613,33.884,-19.056,30.413,2.427,1.051,0,136,1,"J601_GPS  ",0,1,0,0,0,
139.586,37.097,-8.079,7.815,2.12,2.4,0,15,1,"0563_GPS  ",0,1,0,0,0,
139.562,34.094,-15.486,28.613,0.75,0.7,0,136,1,"0599_GPS  ",0,1,0,0,0,
139.561,35.68,-10.209,12.266,0.332,0.325,0,234,1,"MTKA_GPS  ",0,1,0,0,0,
139.556,38.556,-5.833,8.961,1.63,2.15,0,15,1,"0034_GPS  ",0,1,0,0,0,
139.548,39.186,1.146,6.072,0.439,0.428,0,266,1,"019B_GPS  ",0,1,0,0,0,
139.547,34.059,-16.114,30.371,0.61,0.62,0,136,1,"3060_GPS  ",0,1,0,0,0,
139.546,38.563,-3.463,7.546,0.627,0.517,0,15,1,"G105_GPS  ",0,1,0,0,0,
139.542,36.295,-11.92,9.33,0.47,0.41,0,15,1,"3001_GPS  ",0,1,0,0,0,
139.529,37.473,-7.283,6.837,1.44,1.35,0,15,1,"0204_GPS  ",0,1,0,0,0,
139.522,35.419,-16.545,16.637,0.39,0.59,0,234,1,"0804_GPS  ",0,1,0,0,0,
139.52,42.154,-8.884,6.896,2.91,3.01,0,15,1,"0020_GPS  ",0,1,0,0,0,
139.51,38.231,-8.457,7.665,1.64,2,0,15,1,"0049_GPS  ",0,1,0,0,0,
139.504,34.121,-18.298,32.305,0.49,0.49,0,136,1,"3059_GPS  ",0,1,0,0,0,
139.504,37.281,-7.656,6.824,1.48,1.39,0,15,1,"0207_GPS  ",0,1,0,0,0,
139.491,36.624,-13.507,7.252,2.603,2.582,0,15,1,"0589_GPS  ",0,1,0,0,0,
139.49,36.624,-10.705,8.372,0.57,0.52,0,15,1,"0589_GPS  ",0,1,0,0,0,
139.489,35.707,-12,11.096,0.696,0.829,0,234,1,"KGN0_GPS  ",0,1,0,0,0,
139.489,42.079,0.131,5.845,1.647,0.957,0,15,1,"G102_GPS  ",0,1,0,0,0,
139.488,35.71,-11.807,11.167,0.797,0.687,0,234,1,"KGNI_GPS  ",0,1,0,0,0,
139.487,-20.737,36.115,73.445,2.435,1.748,0,19,1,"MISA_GPS  ",0,1,0,0,0,
139.479,34.076,-26.084,28.301,0.51,0.46,0,136,1,"0600_GPS  ",0,1,0,0,0,
139.478,37.686,-6.863,7.451,1.49,1.43,0,15,1,"0236_GPS  ",0,1,0,0,0,
139.468,35.521,-13.064,14.489,0.33,0.4,0,234,1,"3028_GPS  ",0,1,0,0,0,
139.466,35.327,-17.493,19.449,0.33,0.46,0,234,1,"3034_GPS  ",0,1,0,0,0,
139.464,35.926,-9.985,10.878,0.41,0.4,0,15,1,"3011_GPS  ",0,1,0,0,0,
139.462,38.056,-7.434,8.188,2.16,2.01,0,15,1,"0564_GPS  ",0,1,0,0,0,
139.446,42.061,-5.66,2.146,1.83,2.49,0,257,1,"0527_GPS  ",0,1,0,0,0,
139.434,34.762,-14.626,30.704,0.89,0.78,0,136,1,"0594_GPS  ",0,1,0,0,0,
139.433,34.687,-18.359,23.267,1.336,0.856,0,136,1,"I055_GPS  ",0,1,0,0,0,
139.403,34.754,-20.024,27.471,0.51,0.78,0,136,1,"9055_GPS  ",0,1,0,0,0,
139.402,37.037,-7.08,7.069,2.88,2.03,0,15,1,"0801_GPS  ",0,1,0,0,0,
139.397,34.733,-23.226,25.459,0.61,1.01,0,136,1,"9054_GPS  ",0,1,0,0,0,
139.381,34.784,-22.776,32.118,0.38,1.18,0,136,1,"3051_GPS  ",0,1,0,0,0,
139.37,35.616,-11.443,13.726,0.3,0.53,0,234,1,"0758_GPS  ",0,1,0,0,0,
139.366,35.391,-16.06,16.306,0.35,0.43,0,234,1,"0960_GPS  ",0,1,0,0,0,
139.366,35.801,-10.372,12.306,0.33,0.4,0,15,1,"0755_GPS  ",0,1,0,0,0,
139.364,37.303,-5.691,6.135,1.55,1.36,0,15,1,"0206_GPS  ",0,1,0,0,0,
139.359,34.738,-29.669,25.044,1.02,0.47,0,136,1,"0595_GPS  ",0,1,0,0,0,
139.351,37.929,-3.036,6.515,0.942,0.751,0,15,1,"J234_GPS  ",0,1,0,0,0,
139.345,36.121,-9.762,10.141,0.44,0.43,0,15,1,"3005_GPS  ",0,1,0,0,0,
139.33,36.422,-8.243,8.674,0.98,0.751,0,15,1,"J222_GPS  ",0,1,0,0,0,
139.323,35.483,-15.262,13.424,2.277,2.392,0,234,1,"3029_GPS  ",0,1,0,0,0,
139.322,35.483,-13.505,14.929,0.42,0.48,0,234,1,"3029_GPS  ",0,1,0,0,0,
139.271,34.52,-22.712,20.182,0.38,0.44,0,136,1,"0596_GPS  ",0,1,0,0,0,
139.269,36.004,-10.661,10.891,0.48,0.44,0,15,1,"0753_GPS  ",0,1,0,0,0,
139.268,35.724,-10.997,13.571,0.35,0.46,0,15,1,"3063_GPS  ",0,1,0,0,0,
139.263,35.305,-18.052,17.84,0.37,0.43,0,234,1,"3035_GPS  ",0,1,0,0,0,
139.262,-35.15,33.704,74.233,1.383,1.244,0,19,1,"MRYB_GPS  ",0,1,0,0,0,
139.258,34.372,-18.279,22.71,0.45,0.6,0,136,1,"3057_GPS  ",0,1,0,0,0,
139.255,36.268,-9.95,9.529,0.45,0.4,0,15,1,"0956_GPS  ",0,1,0,0,0,
139.253,38.465,-0.579,6.278,1.67,1.88,0,266,1,"0231_GPS  ",0,1,0,0,0,
139.232,35.289,-24.016,21.691,3.202,3.624,0,234,1,"96S0_GPS  ",0,1,0,0,0,
139.226,37.828,-1.969,6.449,1.017,0.753,0,15,1,"J805_GPS  ",0,1,0,0,0,
139.225,36.77,-10.672,5.897,2.827,2.584,0,15,1,"0220_GPS  ",0,1,0,0,0,
139.216,35.325,-27.99,22.953,3.015,3.469,0,234,1,"96S0_GPS  ",0,1,0,0,0,
139.211,34.333,-24.406,17.803,0.36,0.41,0,136,1,"0597_GPS  ",0,1,0,0,0,
139.205,35.429,-12.329,16.572,0.39,0.56,0,234,1,"3066_GPS  ",0,1,0,0,0,
139.184,35.275,-24.598,20.127,3.378,3.586,0,234,1,"96S0_GPS  ",0,1,0,0,0,
139.182,35.884,-8.95,11.688,0.38,0.45,0,15,1,"0754_GPS  ",0,1,0,0,0,
139.173,35.306,-24.704,19.382,3.341,3.322,0,234,1,"96S0_GPS  ",0,1,0,0,0,
139.171,34.207,-24.191,13.737,0.63,0.6,0,136,1,"9016_GPS  ",0,1,0,0,0,
139.171,35.041,-16.157,16.887,0.38,0.42,0,291,1,"5105_GPS  ",0,1,0,0,0,
139.163,35.33,-21.201,19.03,3.162,3.499,0,234,1,"96S0_GPS  ",0,1,0,0,0,
139.163,35.336,-16.247,14.906,0.38,0.45,0,234,1,"0229_GPS  ",0,1,0,0,0,
139.157,35.61,-11.789,12.826,0.36,0.46,0,15,1,"3065_GPS  ",0,1,0,0,0,
139.142,35.269,-16.452,15.763,0.47,0.46,0,291,1,"0230_GPS  ",0,1,0,0,0,
139.138,34.24,-30.024,13.762,0.45,0.51,0,136,1,"0598_GPS  ",0,1,0,0,0,
139.134,34.2,-27.341,12.474,1.007,0.864,0,136,1,"I058_GPS  ",0,1,0,0,0,
139.133,34.895,-14.488,9.762,1.526,1.444,0,291,1,"G113_GPS  ",0,1,0,0,0,
139.131,34.939,-15.601,14.181,0.37,0.45,0,291,1,"3048_GPS  ",0,1,0,0,0,
139.124,34.878,-17.459,13.54,0.44,0.48,0,291,1,"3062_GPS  ",0,1,0,0,0,
139.11,35.149,-15.949,14.188,0.42,0.5,0,291,1,"3042_GPS  ",0,1,0,0,0,
139.102,34.972,-16.654,12.637,0.48,0.49,0,291,1,"2107_GPS  ",0,1,0,0,0,
139.096,35.045,-16.861,11.886,0.46,0.48,0,291,1,"4111_GPS  ",0,1,0,0,0,
139.082,35.007,-17.678,11.234,0.47,0.47,0,291,1,"2106_GPS  ",0,1,0,0,0,
139.076,35.987,-10.542,10.643,0.41,0.43,0,15,1,"0223_GPS  ",0,1,0,0,0,
139.074,37.752,-3.259,6.334,1.25,1.39,0,15,1,"0571_GPS  ",0,1,0,0,0,
139.07,34.95,-18.307,8.253,0.4,0.5,0,291,1,"0841_GPS  ",0,1,0,0,0,
139.067,36.235,-9.795,8.962,0.43,0.47,0,15,1,"0592_GPS  ",0,1,0,0,0,
139.059,37.662,-3.551,6.502,1.26,1.31,0,15,1,"0238_GPS  ",0,1,0,0,0,
139.057,36.539,-10.3,7.633,2.626,2.424,0,15,1,"0752_GPS  ",0,1,0,0,0,
139.049,35.246,-13.727,11.55,0.49,0.62,0,291,1,"3068_GPS  ",0,1,0,0,0,
139.045,35.415,-11.79,13.259,0.37,0.53,0,234,1,"3031_GPS  ",0,1,0,0,0,
139.035,34.99,-18.443,8.098,0.39,0.48,0,291,1,"9072_GPS  ",0,1,0,0,0,
139.026,35.512,-12.427,13.777,0.35,0.57,0,15,1,"0607_GPS  ",0,1,0,0,0,
139.02,37.32,-4.891,6.906,1.53,1.7,0,15,1,"0568_GPS  ",0,1,0,0,0,
139.017,36.395,-8.947,9.015,0.47,0.46,0,15,1,"0955_GPS  ",0,1,0,0,0,
139.014,34.922,-19.799,10.475,0.47,0.45,0,291,1,"3061_GPS  ",0,1,0,0,0,
138.998,35.015,-16.814,8.063,0.41,0.45,0,291,1,"3046_GPS  ",0,1,0,0,0,
138.998,37.468,-3.884,7.754,1.4,1.27,0,15,1,"0239_GPS  ",0,1,0,0,0,
138.99,34.751,-21.197,13.411,0.45,0.49,0,291,1,"3053_GPS  ",0,1,0,0,0,
138.989,37.896,-1.352,5.429,2.881,3.334,0,266,1,"0050_GPS  ",0,1,0,0,0,
138.983,-34.506,33.521,73.75,1.03,0.985,0,19,1,"TNDA_GPS  ",0,1,0,0,0,
138.976,35.623,-10.969,11.92,0.42,0.49,0,15,1,"3064_GPS  ",0,1,0,0,0,
138.974,35.114,-15.351,8.229,0.41,0.45,0,291,1,"0813_GPS  ",0,1,0,0,0,
138.952,-4.042,32.572,71.474,1.58,0.81,-0.056,72,1,"WAME_GPS  ",0,1,0,0,0,
138.95,35.754,-10.809,10.965,0.42,0.5,0,15,1,"0980_GPS  ",0,1,0,0,0,
138.95,-4.094,29.882,70.983,1.6,0.4,-0.011,72,1,"WAME_GPS  ",0,1,0,0,0,
138.95,-4.096,32.893,71.925,0.48,0.35,0.062,72,1,"WAMB_GPS  ",0,1,0,0,0,
138.939,34.699,-23.809,13.364,0.41,0.43,0,291,1,"0628_GPS  ",0,1,0,0,0,
138.934,37.166,-6.289,7.255,2.749,2.74,0,15,1,"0242_GPS  ",0,1,0,0,0,
138.928,35.204,-13.576,7.552,0.43,0.47,0,291,1,"0621_GPS  ",0,1,0,0,0,
138.926,35.93,-11.535,9.853,0.54,0.63,0,15,1,"0958_GPS  ",0,1,0,0,0,
138.925,34.916,-17.33,8.692,0.49,0.45,0,291,1,"3049_GPS  ",0,1,0,0,0,
138.922,34.866,-19.351,9.621,0.56,0.59,0,291,1,"0297_GPS  ",0,1,0,0,0,
138.912,36.143,-11.036,8.8,0.44,0.46,0,15,1,"0593_GPS  ",0,1,0,0,0,
138.907,35.047,-16.928,6.309,0.36,0.46,0,291,1,"0626_GPS  ",0,1,0,0,0,
138.902,35.11,-16.272,5.848,0.34,0.44,0,291,1,"3043_GPS  ",0,1,0,0,0,
138.882,35.322,-12.431,9.865,0.54,0.61,0,291,1,"3038_GPS  ",0,1,0,0,0,
138.876,34.719,-22.46,11.404,0.37,0.46,0,291,1,"0814_GPS  ",0,1,0,0,0,
138.865,36.259,-10.251,9.912,0.44,0.45,0,15,1,"0045_GPS  ",0,1,0,0,0,
138.838,34.61,-21.638,11.577,0.678,0.501,0,291,1,"I086_GPS  ",0,1,0,0,0,
138.831,36.993,-5.422,8.22,0.81,0.665,0,15,1,"J246_GPS  ",0,1,0,0,0,
138.814,35.496,-11.848,12.746,0.43,0.55,0,15,1,"3070_GPS  ",0,1,0,0,0,
138.795,34.971,-21.095,8.073,0.46,0.71,0,291,1,"1144_GPS  ",0,1,0,0,0,
138.79,37.311,-3.052,7.7,3.231,3.053,0,15,1,"0240_GPS  ",0,1,0,0,0,
138.786,34.776,-22.643,10.553,0.35,0.45,0,291,1,"3085_GPS  ",0,1,0,0,0,
138.784,34.672,-25.48,10.925,2.758,3.022,0,291,1,"3098_GPS  ",0,1,0,0,0,
138.781,34.974,-18.311,8.306,3.307,3.647,0,291,1,"3080_GPS  ",0,1,0,0,0,
138.781,37.668,0.933,6.667,2.525,3.035,0,266,1,"0237_GPS  ",0,1,0,0,0,
138.777,34.855,-21.979,8.901,3.478,3.102,0,291,1,"0620_GPS  ",0,1,0,0,0,
138.776,34.855,-20.672,9.58,0.39,0.51,0,291,1,"0620_GPS  ",0,1,0,0,0,
138.771,35.306,-13.419,8.26,0.49,0.48,0,291,1,"3072_GPS  ",0,1,0,0,0,
138.764,34.807,-18.82,8.47,0.52,0.369,0,291,1,"G114_GPS  ",0,1,0,0,0,
138.763,34.69,-23.612,11.719,0.35,0.48,0,291,1,"0838_GPS  ",0,1,0,0,0,
138.762,35.453,-11.884,11.099,0.35,0.56,0,15,1,"9049_GPS  ",0,1,0,0,0,
138.752,-1.872,-44.36,66.288,0.28,0.23,-0.012,67,1,"SRMI_GPS  ",0,1,0,0,0,
138.727,35.361,-13.671,10.163,0.5,0.49,0,15,1,"1100_GPS  ",0,1,0,0,0,
138.722,35.174,-12.702,10.662,0.35,0.39,0,291,1,"0307_GPS  ",0,1,0,0,0,
138.721,35.173,-15.852,4.553,0.37,0.45,0,291,1,"3076_GPS  ",0,1,0,0,0,
138.712,35.384,-13.26,9.892,0.39,0.55,0,15,1,"9053_GPS  ",0,1,0,0,0,
138.707,37.536,4.615,7.2,2.997,3.187,0,266,1,"0566_GPS  ",0,1,0,0,0,
138.703,36.2,-10.294,9.489,0.47,0.48,0,15,1,"0957_GPS  ",0,1,0,0,0,
138.695,35.747,-10.095,10.359,0.38,0.47,0,15,1,"0264_GPS  ",0,1,0,0,0,
138.69,35.65,-10.849,11.098,0.35,0.46,0,15,1,"0606_GPS  ",0,1,0,0,0,
138.685,35.21,-18.372,7.934,2.634,2.828,0,291,1,"96S0_GPS  ",0,1,0,0,0,
138.647,-34.729,34.584,74.766,0.203,0.221,0,19,1,"ADE1_GPS  ",0,1,0,0,0,
138.639,-33.001,33.774,73.972,1.11,0.803,0,19,1,"JMST_GPS  ",0,1,0,0,0,
138.638,36.346,-9.198,9.816,2.587,2.471,0,15,1,"0269_GPS  ",0,1,0,0,0,
138.628,35.271,-16.061,6.8,0.43,0.42,0,291,1,"S006_GPS  ",0,1,0,0,0,
138.618,35.148,-11.818,2.609,2.868,1.292,0,291,1,"S009_GPS  ",0,1,0,0,0,
138.617,35.203,-11.743,6.765,0.284,0.228,0,291,1,"3075_GPS  ",0,1,0,0,0,
138.61,35.117,-14.078,9.464,0.26,0.264,0,228,1,"0815_GPS  ",0,1,0,0,0,
138.609,37.079,-4.167,6.893,2.41,2.643,0,15,1,"0244_GPS  ",0,1,0,0,0,
138.607,35.468,-12.345,10.236,0.37,0.51,0,15,1,"0981_GPS  ",0,1,0,0,0,
138.591,36.616,-13.193,7.039,3.007,2.661,0,15,1,"0591_GPS  ",0,1,0,0,0,
138.589,35.32,-15.89,7.703,0.41,0.43,0,15,1,"S007_GPS  ",0,1,0,0,0,
138.589,-34.934,34.199,73.616,2.11,1.893,0,19,1,"CRKA_GPS  ",0,1,0,0,0,
138.583,35.59,-14.208,10.161,1.345,1.006,0,15,1,"J048_GPS  ",0,1,0,0,0,
138.583,35.974,-10.213,9.753,0.47,0.56,0,15,1,"0613_GPS  ",0,1,0,0,0,
138.574,37.398,0.531,6.165,2.648,3.31,0,266,1,"0051_GPS  ",0,1,0,0,0,
138.563,35.362,-12.241,7.349,0.276,0.226,0,15,1,"3071_GPS  ",0,1,0,0,0,
138.553,36.508,-9.92,5.409,0.91,0.91,0,15,1,"0221_GPS  ",0,1,0,0,0,
138.543,-35.218,37.615,76.02,2.604,1.967,0,19,1,"MCLV_GPS  ",0,1,0,0,0,
246.539,35.195,-2.004,2.46,0.492,0.42,0,2,1,"KAYO_GPS  ",0,1,0,0,0,
270.542,36.417,0.596,1.329,0.296,0.205,0,2,1,"NWCC_GPS  ",0,1,0,0,0,
270.548,14.517,19.788,6.458,0.794,0.758,0.04,241,1,"CON__GPS  ",0,1,0,0,0,
246.528,46.95,-0.771,0.683,1.194,0.989,0,104,1,"MTUM_GPS  ",0,1,0,0,0,
246.527,43.723,-1.381,1.542,0.485,0.49,0,102,1,"CRAW_GPS  ",0,1,0,0,0,
246.525,38.008,-2.075,0.398,0.915,1.045,0,161,1,"LUND_GPS  ",0,1,0,0,0,
270.556,45.633,0.174,-0.703,0.731,0.622,0,2,1,"RHER_GPS  ",0,1,0,0,0,
246.522,43.619,-1.691,1.128,0.455,0.432,0,102,1,"TCSG_GPS  ",0,1,0,0,0,
246.503,31.291,-2.901,1.828,0.673,1.15,0,2,1,"SA99_GPS  ",0,1,0,0,0,
246.495,39.269,-2.765,1.493,0.475,0.459,0,161,1,"P082_GPS  ",0,1,0,0,0,
270.59,43.037,0.343,0.608,0.542,0.514,0,2,1,"MAD0_GPS  ",0,1,0,0,0,
246.488,33.727,-1.518,3.148,4.05,4.65,0.075,2,1,"M477_GPS  ",0,1,0,0,0,
270.594,29.337,-1.052,0.67,0.364,0.31,0,2,1,"BVHS_GPS  ",0,1,0,0,0,
270.6,36.454,0.336,1.139,0.465,0.354,0,2,1,"NMKM_GPS  ",0,1,0,0,0,
270.61,13.502,5.07,9.557,1.1,0.7,0,78,1,"SUNZ_GPS  ",0,1,0,0,0,
246.468,45.629,0.518,1.435,0.469,0.474,-0.003,102,1,"L070_GPS  ",0,1,0,0,0,
270.623,38.378,-0.276,1.581,1.107,0.47,0,2,1,"API1_GPS  ",0,1,0,0,0,
246.443,47.956,0.215,0.868,0.552,0.616,0.079,104,1,"SPBR_GPS  ",0,1,0,0,0,
246.44,44.266,-0.603,1.508,0.354,0.367,-0.008,102,1,"DONK_GPS  ",0,1,0,0,0,
270.643,36.847,0.324,1.077,0.271,0.19,0,2,1,"MAIR_GPS  ",0,1,0,0,0,
270.646,13.97,15.654,8.546,2.4,2.4,0,241,1,"TACA_Sta  ",0,1,0,0,0,
270.655,36.474,0.005,1.061,0.401,0.349,0,2,1,"RLAP_GPS  ",0,1,0,0,0,
246.425,37.064,-1.852,2.411,0.436,0.394,0,161,1,"HURR_GPS  ",0,1,0,0,0,
270.655,13.793,12.233,9.547,2.4,2.4,0,241,1,"PLAY_Sta  ",0,1,0,0,0,
246.418,44.227,-0.699,1.231,0.484,0.476,0,102,1,"P357_GPS  ",0,1,0,0,0,
270.664,31.328,-0.224,0.84,0.528,0.535,0,2,1,"MSHT_GPS  ",0,1,0,0,0,
246.415,39.548,-1.9,0.599,0.51,0.48,0.04,161,1,"F100_GPS  ",0,1,0,0,0,
270.68,13.495,6.11,14.619,0.834,0.803,0.01,78,1,"SIGN_GPS  ",0,1,0,0,0,
270.681,36.918,1.105,0.332,0.747,0.575,0,2,1,"MOCH_GPS  ",0,1,0,0,0,
270.7,46.864,0.286,-0.598,0.609,0.672,0,2,1,"MIOT_GPS  ",0,1,0,0,0,
270.706,40.556,0.094,1.29,0.404,0.357,0,2,1,"HDIL_GPS  ",0,1,0,0,0,
246.37,39.081,-3.508,1.223,0.86,0.67,0.01,161,1,"F200_GPS  ",0,1,0,0,0,
246.37,44.214,-0.615,2.193,0.447,0.458,0,102,1,"DONP_GPS  ",0,1,0,0,0,
270.711,13.67,10.24,8.654,0.5,0.5,0,78,1,"CNR1_Sta  ",0,1,0,0,0,
246.361,48.326,1.372,0.853,0.474,0.485,0.001,104,1,"ESEX_GPS  ",0,1,0,0,0,
246.35,41.463,-2.128,1.008,0.674,0.747,0.104,161,1,"Y378_GPS  ",0,1,0,0,0,
246.333,38.795,-2.521,1.685,0.53,0.48,-0.03,161,1,"F300_GPS  ",0,1,0,0,0,
270.752,36.137,0.605,1.717,0.459,0.496,0,2,1,"TN42_GPS  ",0,1,0,0,0,
246.323,43.292,-1.785,1.066,0.424,0.43,-0.006,164,1,"32FM_GPS  ",0,1,0,0,0,
246.32,33.352,-1.848,3.315,2.85,3,0.08,2,1,"BLAN_GPS  ",0,1,0,0,0,
270.76,14.854,12.227,4.759,0.967,0.784,0.052,241,1,"CPJ__GPS  ",0,1,0,0,0,
270.766,15.93,1.762,1.897,0.809,0.778,0.04,2,1,"MOD__GPS  ",0,1,0,0,0,
270.779,37.71,-0.085,1.543,0.58,0.57,0,2,1,"ILC0_GPS  ",0,1,0,0,0,
270.783,48.465,-0.107,-0.848,0.615,0.418,0,2,1,"C118_GPS  ",0,1,0,0,0,
270.801,14.438,18.252,13.258,1,0.9,0,241,1,"NOCO_Rod  ",0,1,0,0,0,
246.278,44.218,-0.487,1.032,0.516,0.477,0,102,1,"P355_GPS  ",0,1,0,0,0,
270.803,13.965,17.726,9.033,0.699,0.632,0,241,1,"MNGO_GPS  ",0,1,0,0,0,
270.804,40.791,0.843,0.163,0.562,0.491,0,2,1,"KA21_GPS  ",0,1,0,0,0,
246.269,34.667,-2.659,2.755,0.631,0.71,0,2,1,"P010_GPS  ",0,1,0,0,0,
246.261,42.567,-2.353,1.04,0.332,0.332,0.005,164,1,"Y423_GPS  ",0,1,0,0,0,
270.828,36.333,-0.21,0.607,0.701,0.422,0,2,1,"HCES_GPS  ",0,1,0,0,0,
270.837,45.114,1.168,-1.17,0.604,0.63,0,2,1,"ANGO_GPS  ",0,1,0,0,0,
270.838,13.841,18.717,10.368,2.4,2.4,0,241,1,"GUAY_Sta  ",0,1,0,0,0,
270.84,35.32,0.658,0.823,0.783,0.661,0,2,1,"TN47_GPS  ",0,1,0,0,0,
270.853,41.328,0.142,0.768,0.572,0.648,0,2,1,"KA20_GPS  ",0,1,0,0,0,
270.857,30.779,-0.118,0.893,0.482,0.435,0,2,1,"MSPK_GPS  ",0,1,0,0,0,
270.858,43.863,0.185,0.542,0.597,0.541,0,2,1,"PRON_GPS  ",0,1,0,0,0,
270.865,14.841,14.796,7.253,1.466,1.265,0,241,1,"MAYA_GPS  ",0,1,0,0,0,
270.883,13.697,13.548,9.058,0.518,0.469,0,241,1,"SSIA_GPS  ",0,1,0,0,0,
246.197,48.208,1.595,0.874,0.64,0.752,0.066,104,1,"KNCK_GPS  ",0,1,0,0,0,
246.195,39.369,-2.763,1.587,0.308,0.302,0,161,1,"FOOT_GPS  ",0,1,0,0,0,
270.888,32.44,0.074,0.826,0.79,0.682,0,2,1,"MSDC_GPS  ",0,1,0,0,0,
246.191,41.43,-2.585,1.586,0.561,0.596,0.002,161,1,"F381_GPS  ",0,1,0,0,0,
270.895,14.175,17.338,6.878,0.831,0.803,0.01,241,1,"TEJU_GPS  ",0,1,0,0,0,
270.898,32.762,0.212,1.16,0.904,0.854,0,2,1,"MSPH_GPS  ",0,1,0,0,0,
246.181,51.209,3.623,2.136,0.195,0.154,0,2,1,"C082_GPS  ",0,1,0,0,0,
246.177,47.852,0.367,1.346,0.557,0.608,0.027,104,1,"CARO_GPS  ",0,1,0,0,0,
246.148,44.204,-1.371,1.651,0.622,0.644,0.044,102,1,"X51X_GPS  ",0,1,0,0,0,
270.941,15.394,6.964,0.811,0.831,0.778,0.075,91,1,"CAM__GPS  ",0,1,0,0,0,
270.942,42.351,0.207,0.537,0.403,0.372,0,2,1,"RRW1_GPS  ",0,1,0,0,0,
246.132,42.879,-2.039,0.879,0.401,0.389,0,164,1,"P677_GPS  ",0,1,0,0,0,
270.95,13.447,7.914,9.899,0.49,0.517,0,78,1,"AIES_GPS  ",0,1,0,0,0,
246.129,39.067,-2.986,1.751,0.47,0.462,0,161,1,"P081_GPS  ",0,1,0,0,0,
270.957,44.742,0.919,-0.016,0.72,0.71,0,2,1,"TIGR_GPS  ",0,1,0,0,0,
246.117,45.114,0.589,0.57,0.394,0.406,-0.017,102,1,"SMNA_GPS  ",0,1,0,0,0,
270.965,44.349,1.017,-0.489,0.634,0.569,0,2,1,"WACA_GPS  ",0,1,0,0,0,
270.971,42.711,0.407,0.545,1.046,0.521,0,2,1,"JALE_GPS  ",0,1,0,0,0,
246.103,45.192,0.322,0.98,0.583,0.514,0,102,1,"IDSN_GPS  ",0,1,0,0,0,
246.081,50.833,1.354,0.354,0.226,0.276,0,2,1,"C110_GPS  ",0,1,0,0,0,
271,40.496,0.109,0.577,0.567,0.542,0,2,1,"BLO0_GPS  ",0,1,0,0,0,
246.073,44.179,-0.809,1.464,0.436,0.436,-0.016,102,1,"DICK_GPS  ",0,1,0,0,0,
271.012,13.515,7.743,9.286,2.4,2.4,0,78,1,"VIEJ_Sta  ",0,1,0,0,0,
271.038,42.273,0.155,0.81,0.367,0.402,0,2,1,"TM07_GPS  ",0,1,0,0,0,
271.048,13.574,8.966,9.989,1.2,1.2,0,78,1,"NONU_Sta  ",0,1,0,0,0,
246.021,44.055,-1.43,0.869,0.484,0.454,0,102,1,"P353_GPS  ",0,1,0,0,0,
246.021,44.109,-1.041,1.124,0.42,0.396,0,102,1,"P354_GPS  ",0,1,0,0,0,
271.067,37.728,0.466,1.24,0.77,0.699,0,2,1,"CLA1_GPS  ",0,1,0,0,0,
246.013,44.008,-1.489,0.757,0.406,0.418,-0.012,102,1,"Z425_GPS  ",0,1,0,0,0,
246.011,47.99,1.173,1.457,0.51,0.548,0.01,104,1,"SWAN_GPS  ",0,1,0,0,0,
271.074,39.874,-0.024,0.956,0.354,0.324,0,2,1,"KA12_GPS  ",0,1,0,0,0,
245.999,33.666,-1.377,3.215,2.4,2.55,0.048,2,1,"RAMS_GPS  ",0,1,0,0,0,
271.081,35.64,0.211,0.935,0.446,0.38,0,2,1,"TN44_GPS  ",0,1,0,0,0,
245.995,32.723,-2.829,2.877,0.55,0.466,0,2,1,"P003_GPS  ",0,1,0,0,0,
271.095,38.318,0.258,1.343,0.411,0.354,0,2,1,"RTDN_GPS  ",0,1,0,0,0,
271.098,13.94,18.338,8.599,0.632,0.537,0,241,1,"CEGD_GPS  ",0,1,0,0,0,
271.102,13.727,17.511,9.195,1.2,1.2,0,241,1,"CARM_Sta  ",0,1,0,0,0,
245.976,44.198,-1.019,1.269,0.418,0.418,0.031,102,1,"ANDF_GPS  ",0,1,0,0,0,
245.97,43.433,-1.709,1.34,0.663,0.663,0.007,102,1,"WODI_GPS  ",0,1,0,0,0,
245.959,35.197,-2.434,2.208,0.334,0.298,0,2,1,"KING_GPS  ",0,1,0,0,0,
271.138,34.09,-0.182,0.955,0.296,0.283,0,2,1,"OKOM_GPS  ",0,1,0,0,0,
271.154,43.444,0.372,0.698,0.626,0.693,0,2,1,"BEDA_GPS  ",0,1,0,0,0,
245.904,43.849,-1.87,0.509,0.517,0.516,0,102,1,"P352_GPS  ",0,1,0,0,0,
271.177,13.668,19.237,8.625,1.3,0.8,0,241,1,"DERA_GPS  ",0,1,0,0,0,
245.891,46.929,1.025,1.315,0.301,0.3,0,104,1,"MSOL_GPS  ",0,1,0,0,0,
245.886,47.664,1.314,1.119,0.205,0.193,0,104,1,"PLS0_GPS  ",0,1,0,0,0,
271.206,33.454,0.263,0.503,0.689,0.649,0,2,1,"MSST_GPS  ",0,1,0,0,0,
245.871,41.296,-2.339,0.812,0.572,0.609,0.086,161,1,"H348_GPS  ",0,1,0,0,0,
271.213,13.63,13.643,10.706,1.2,1.2,0,78,1,"SVIC_Sta  ",0,1,0,0,0,
245.867,51.079,1.831,-0.347,0.236,0.398,0,2,1,"SA10_GPS  ",0,1,0,0,0,
271.224,14.767,16.694,7.012,1.449,1.225,0,241,1,"ROSA_GPS  ",0,1,0,0,0,
271.226,41.906,0.664,0.403,0.747,0.659,0,2,1,"TM11_GPS  ",0,1,0,0,0,
245.846,35.371,-1.751,2.493,1.319,1.172,0,2,1,"AZMP_GPS  ",0,1,0,0,0,
245.826,47.924,0.019,1.769,0.682,0.675,0.038,104,1,"RLNS_GPS  ",0,1,0,0,0,
245.82,40.64,-2.776,1.409,0.322,0.292,0,161,1,"GOSH_GPS  ",0,1,0,0,0,
271.263,43.174,0.347,0.59,0.562,0.716,0,2,1,"WAWN_GPS  ",0,1,0,0,0,
271.268,32.368,-0.575,0.706,0.568,0.403,0,2,1,"MSM0_GPS  ",0,1,0,0,0,
245.811,34.309,-1.888,3.681,0.55,0.556,0,2,1,"GNPS_GPS  ",0,1,0,0,0,
271.272,13.669,16.473,8.511,1.2,1.2,0,241,1,"CARR_Sta  ",0,1,0,0,0,
245.804,43.87,-0.658,2.251,0.469,0.48,-0.029,102,1,"PHIK_GPS  ",0,1,0,0,0,
245.797,32.939,-1.354,3.82,0.71,0.62,0.007,2,1,"YUMA_GPS  ",0,1,0,0,0,
271.284,13.56,11.362,10.312,1.2,1.2,0,78,1,"ICHA_Sta  ",0,1,0,0,0,
271.29,15.099,14.372,7.486,0.742,0.707,0,241,1,"JAGU_GPS  ",0,1,0,0,0,
271.29,41.328,0.258,1.171,0.831,0.604,0,2,1,"KA00_GPS  ",0,1,0,0,0,
245.783,44.52,-0.364,0.863,0.557,0.561,-0.007,102,1,"U15A_GPS  ",0,1,0,0,0,
245.761,39.098,-2.756,0.954,1.21,0.78,0.04,161,1,"E259_GPS  ",0,1,0,0,0,
271.323,13.728,17.404,8.816,1.2,1.2,0,241,1,"CABA_Sta  ",0,1,0,0,0,
245.746,35.254,-3.573,0.812,1.168,0.884,0,2,1,"AZGV_GPS  ",0,1,0,0,0,
245.736,37.916,-2.631,1.595,0.346,0.338,0,161,1,"ECHO_GPS  ",0,1,0,0,0,
271.355,30.395,-0.079,0.846,0.502,0.54,0,2,1,"MSGA_GPS  ",0,1,0,0,0,
245.723,39.119,-3.035,1.361,0.446,0.463,0,161,1,"P080_GPS  ",0,1,0,0,0,
271.367,46.08,0.265,-0.274,0.294,0.309,0,2,1,"MIIR_GPS  ",0,1,0,0,0,
245.707,50.871,1.469,0.175,0.326,0.328,0,2,1,"PRDS_GPS  ",0,1,0,0,0,
245.706,43.504,-2.388,2.567,0.51,0.539,-0.016,102,1,"HALY_GPS  ",0,1,0,0,0,
245.706,43.747,-1.654,1.218,0.412,0.442,-0.065,102,1,"S014_GPS  ",0,1,0,0,0,
271.376,47.227,1.234,-1.229,0.142,0.17,0,2,1,"KEW0_GPS  ",0,1,0,0,0,
245.693,41.142,-3.289,1.363,0.585,0.621,0.072,161,1,"X423_GPS  ",0,1,0,0,0,
271.393,45.22,0.56,0.175,0.85,0.81,0,2,1,"DOTY_GPS  ",0,1,0,0,0,
271.395,13.347,10.675,9.523,1.2,1.2,0,78,1,"PRUS_Sta  ",0,1,0,0,0,
271.396,35.229,0.376,0.874,0.421,0.388,0,2,1,"TN43_GPS  ",0,1,0,0,0,
245.673,48.227,1.729,0.766,0.348,0.355,0,104,1,"MTFV_GPS  ",0,1,0,0,0,
245.665,47.836,1.393,1.42,0.529,0.592,0.046,104,1,"K443_GPS  ",0,1,0,0,0,
271.416,14.589,17.061,8.436,1.703,1.342,0,241,1,"GRAC_Rod  ",0,1,0,0,0,
271.416,14.588,17.061,8.436,1.703,1.342,0,241,1,"GRAC_GPS  ",0,1,0,0,0,
271.422,13.824,17.06,7.125,2.4,2.4,0,241,1,"RIOG_Sta  ",0,1,0,0,0,
245.65,43.647,-2.181,1.052,0.43,0.447,-0.059,102,1,"008A_GPS  ",0,1,0,0,0,
271.439,13.622,15.128,8.323,0.742,0.671,0,241,1,"CH15_GPS  ",0,1,0,0,0,
271.448,47.111,3.742,-0.216,0.661,0.639,0,2,1,"MITU_GPS  ",0,1,0,0,0,
245.627,51.096,2.484,-0.706,0.375,0.177,0,2,1,"C028_GPS  ",0,1,0,0,0,
245.624,62.467,2.121,-0.595,0.279,0.458,0,2,1,"C211_GPS  ",0,1,0,0,0,
271.457,39.122,0.482,0.845,0.389,0.33,0,2,1,"MGEF_GPS  ",0,1,0,0,0,
271.458,44.762,-0.272,0.416,0.768,0.588,0,2,1,"SHNO_GPS  ",0,1,0,0,0,
271.487,36.126,0.093,1.121,0.442,0.435,0,2,1,"TN41_GPS  ",0,1,0,0,0,
271.487,42.147,0.864,-0.037,0.784,0.922,0,2,1,"TM06_GPS  ",0,1,0,0,0,
271.487,46.764,0.684,-0.371,0.344,0.344,0,2,1,"MIBX_GPS  ",0,1,0,0,0,
271.493,13.529,8.165,6.715,0.949,0.758,0,78,1,"BT10_GPS  ",0,1,0,0,0,
245.586,43.563,-1.319,1.025,0.311,0.306,0,102,1,"HLID_GPS  ",0,1,0,0,0,
245.583,42.936,-1.869,1.446,0.436,0.442,-0.006,164,1,"SHOG_GPS  ",0,1,0,0,0,
271.513,32.83,-0.363,1.05,0.714,0.737,0,2,1,"MSSB_GPS  ",0,1,0,0,0,
271.516,13.38,9.73,7.033,1.2,1.2,0,78,1,"USUL_Sta  ",0,1,0,0,0,
